city,state,date,shape,city_latitude,city_longitude
Chester,VA,12/12/2019,light,37.34315152,-77.40858182
Rocky Hill,CT,3/22/2019,circle,41.6648,-72.6393
Ottawa,ON,4/17/2019,teardrop,45.3813825,-75.70850071
Kirbyville,TX,4/2/2019,disk,30.6772,-94.0052
Tucson,AZ,5/1/2019,unknown,32.25994076,-110.9275423
Gold Canyon,AZ,4/10/2019,circle,33.3715,-111.4369
Brookville,IN,6/18/2019,sphere,39.4047,-84.9736
Melbourne Beach,FL,6/12/2019,unknown,27.9668,-80.5096
Carrizozo,NM,6/11/2019,changing,33.7849,-105.8332
Yuba City,CA,8/17/2019,formation,39.05981142,-121.6682562
Abilene,TX,8/14/2019,light,32.39435138,-99.790044
Santa Barbara,CA,8/6/2019,flash,34.3170381,-119.7205414
Charlestown,RI,8/5/2019,chevron,41.396,-71.6631
Springfield,TN,8/3/2019,disk,36.5086,-86.8563
Maitland,FL,7/29/2019,other,28.62938584,-81.36191062
Kevil,KY,3/15/2019,circle,37.0812,-88.9091
Spring Hill,FL,2/17/2019,other,28.46920906,-82.5392425
Lafayette,LA,2/20/2019,disk,30.19079351,-92.04514239
Clementon,NJ,2/22/2019,egg,39.8115,-74.9829
Hamilton,MT,3/7/2019,triangle,46.1612,-114.1401
Niland,CA,3/14/2019,triangle,33.3055,-115.5573
Tucson,AZ,3/14/2019,other,32.25994076,-110.9275423
Vero Beach,FL,3/14/2019,formation,27.65600488,-80.43302385
Port Saint Lucie,FL,3/14/2019,light,27.2856863,-80.36344364
Atlanta,TX,3/14/2019,other,33.127,-94.1992
East Helena,MT,3/15/2019,cone,46.5366,-111.7695
Fresno,CA,3/15/2019,cigar,36.78825093,-119.7894705
Richton Park,IL,3/15/2019,sphere,41.4807,-87.7277
Kissimmee,FL,3/15/2019,fireball,28.25503467,-81.42949196
Jenison,MI,3/15/2019,circle,42.915488,-85.84567467
Fort Lauderdale,FL,3/15/2019,light,26.13691468,-80.21914076
Voorheesville,NY,3/15/2019,disk,42.6213,-73.9721
NEW PRAGUE,MN,3/16/2019,light,44.5411,-93.5902
Green Bay,WI,3/16/2019,flash,44.52863972,-88.04377664
Batavia,IL,3/16/2019,cigar,41.8392,-88.3612
Davenport,IA,3/16/2019,circle,41.55516412,-90.59875989
Frisco,TX,3/16/2019,triangle,33.14455577,-96.81782363
Las Vegas,NV,3/16/2019,unknown,36.14124586,-115.1865919
Independence,MO,3/16/2019,chevron,39.07880845,-94.38608575
Manahawkin,NJ,3/16/2019,triangle,39.7042,-74.2546
Peoria,AZ,3/16/2019,light,33.65789817,-112.246642
Virginia Beach,VA,3/16/2019,circle,36.83730134,-76.06194815
Cranston,RI,3/16/2019,sphere,41.77119239,-71.46207462
Boylston,MA,3/16/2019,diamond,42.3539,-71.7173
Flint,TX,3/16/2019,fireball,32.2259,-95.3883
Atkinson,NH,3/16/2019,other,42.8371,-71.1599
Lawrenceville,IL,3/16/2019,diamond,38.7399,-87.6341
Tigard,OR,3/17/2019,changing,45.4312,-122.7715
Seattle,WA,3/17/2019,oval,47.60904639,-122.3260283
Emmett,ID,3/17/2019,other,43.9865,-116.5246
Ethridge,TN,3/17/2019,changing,35.3292,-87.2717
Carson City,NV,3/17/2019,oval,39.16921421,-119.7517695
Philadelphia,PA,3/18/2019,triangle,39.99063505,-75.14580121
Fontana,CA,3/18/2019,oval,34.12167083,-117.4599851
Port Republic,NJ,3/18/2019,sphere,39.5281,-74.4822
Garden Grove,CA,3/18/2019,sphere,33.77568084,-117.9588831
Palmyra,PA,3/19/2019,unknown,40.2923,-76.5909
Las Vegas,NV,3/18/2019,unknown,36.14124586,-115.1865919
Ocean Springs,MS,3/19/2019,sphere,30.43996197,-88.75735634
Green Valley,AZ,3/19/2019,formation,31.847832,-111.049812
Gilroy,CA,3/19/2019,light,37.0692,-121.5567
San Diego,CA,3/19/2019,triangle,32.78722908,-117.1402677
Gardner,MA,3/19/2019,rectangle,42.5899,-71.9887
Mankato,MN,3/19/2019,triangle,44.14548033,-94.01062092
Newmarket,ON,3/19/2019,chevron,44.05629809,-79.47185496
Hobart,WA,3/19/2019,light,47.4218,-121.9729
Chester Springs,PA,3/20/2019,other,40.1009,-75.641
Vancouver,WA,3/20/2019,fireball,45.65808015,-122.5849084
Turners Falls,MA,3/21/2019,light,42.63392353,-72.50616471
Polacca,AZ,3/2/2019,unknown,35.8479,-110.3696
Lawndale,NC,3/31/2019,disk,35.4647,-81.5762
Philadelphia,PA,4/1/2019,cylinder,39.99063505,-75.14580121
Richland,WA,4/2/2019,triangle,46.31271111,-119.3084604
Panama City Beach,FL,4/30/2019,other,30.28921333,-85.81383667
Laveen,AZ,5/19/2019,disk,33.3054,-112.1997
Hampton,CT,5/28/2019,light,41.7647,-72.0685
Phoenix,AZ,5/29/2019,rectangle,33.53538055,-112.04946
Indian Trail,NC,6/1/2019,cone,35.1137,-80.6083
Pottsville,PA,6/16/2019,circle,40.6895,-76.1958
Hixton,WI,6/20/2019,light,44.4073,-91.0442
Mesick,MI,6/21/2019,oval,44.4122,-85.6971
Danville,IL,6/24/2019,fireball,40.15248,-87.649332
Nesquehoning,PA,6/26/2019,oval,40.8794,-75.8118
Corte Madera,CA,6/27/2019,sphere,37.925684,-122.513884
Kannapolis,NC,6/28/2019,light,35.49536667,-80.63160877
Oak Island,NC,6/30/2019,rectangle,33.9083,-78.0785
York,PA,7/1/2019,oval,39.96327543,-76.71886879
Westport,WA,7/4/2019,other,46.8789,-124.1101
Ocean City,MD,7/5/2019,other,38.33834493,-75.12374058
Stephenville,TX,7/10/2019,other,32.28681351,-98.19515676
Elgin,IL,7/10/2019,formation,42.02871111,-88.29332222
Chicopee,MA,7/11/2019,other,42.1792963,-72.56494815
Salt Lake City,UT,7/15/2019,circle,40.70446486,-111.8821388
Eufaula,OK,7/17/2019,circle,35.3072,-95.7216
Denham Springs,LA,7/19/2019,unknown,30.47846961,-90.90102044
Greenbush,MI,7/20/2019,formation,44.5587,-83.3185
Cornelius,NC,7/20/2019,unknown,35.4699,-80.8801
Arlee,MT,7/20/2019,oval,47.1688,-114.0006
Ann Arbor,MI,7/20/2019,circle,42.28027534,-83.73625456
Bozeman,MT,7/20/2019,sphere,45.70981012,-111.0535749
Rio Rancho,NM,7/21/2019,oval,35.26685241,-106.7217166
Nutley,NJ,7/22/2019,circle,40.8223,-74.1599
Albuquerque,NM,7/22/2019,oval,35.10348122,-106.6124752
Farmington,MO,7/23/2019,unknown,37.7721,-90.3672
Bakersfield,CA,7/23/2019,other,35.34399793,-119.0408926
Sussex,WI,7/23/2019,unknown,43.1488,-88.2451
Moose Jaw,SK,7/23/2019,cigar,50.39298,-105.55558
Loon Lake,WA,7/23/2019,diamond,48.0951,-117.5893
St Louis,MO,7/24/2019,unknown,38.62382493,-90.3085277
Westport,CT,7/24/2019,circle,41.14486792,-73.34294245
Newton,NJ,7/24/2019,sphere,41.0667,-74.8128
Plymouth,CT,7/24/2019,egg,41.6576,-73.047
New York,NY,7/24/2019,flash,40.74430707,-73.98772448
Tukwila,WA,7/24/2019,circle,47.474,-122.261
Happy Valley,OR,7/24/2019,rectangle,45.4468,-122.5304
Round Rock,TX,7/25/2019,disk,30.54018385,-97.66624923
Raleigh,NC,7/25/2019,cigar,35.81800885,-78.64441853
Warwick,RI,7/25/2019,triangle,41.7156845,-71.42906015
Sugar Land,TX,7/25/2019,triangle,29.5843458,-95.63350873
Decatur,TX,7/25/2019,oval,33.2859,-97.5127
Marion,NC,7/25/2019,formation,35.7387,-82.0548
Lancaster,PA,7/25/2019,light,40.0332671,-76.3030232
Delanson,NY,7/25/2019,triangle,42.755,-74.1813
New York,NY,7/25/2019,triangle,40.74430707,-73.98772448
Spokane,WA,7/26/2019,cross,47.68357629,-117.3863311
Saint Francis,SD,7/26/2019,disk,43.1006,-100.988
Port Saint Lucie,FL,7/26/2019,diamond,27.2856863,-80.36344364
Odum,GA,7/26/2019,circle,31.7234,-82.0323
Calgary,AB,7/26/2019,unknown,51.04237871,-114.0574425
Nantucket,MA,7/26/2019,light,41.31434324,-70.01144595
Philipsburg,PA,7/26/2019,triangle,40.8624,-78.1734
Bentonville,AR,7/26/2019,triangle,36.35266857,-94.24044571
Aitkin,MN,7/26/2019,disk,46.5278,-93.6123
Crystal Lake,IL,7/26/2019,circle,42.23814643,-88.30697321
Alexandria,VA,7/26/2019,light,38.79895821,-77.09513265
Poulsbo,WA,7/26/2019,sphere,47.7537,-122.6123
Elk Grove,CA,7/26/2019,rectangle,38.39446942,-121.3718591
Crystal Lake,IL,7/27/2019,light,42.23814643,-88.30697321
Spokane,WA,7/27/2019,light,47.68357629,-117.3863311
North Charleston,SC,7/27/2019,other,32.87719179,-80.02638718
Bonne Terre,MO,7/27/2019,light,37.945,-90.5218
Portland,IN,7/27/2019,light,40.4165,-84.9765
Gurnee,IL,7/27/2019,cigar,42.3738,-87.944
Largo,FL,7/27/2019,light,27.90161729,-82.77851383
Etna,NH,7/27/2019,unknown,43.7039,-72.1966
El Dorado Hills,CA,7/27/2019,light,38.6839,-121.0526
Bridgewater,VT,7/27/2019,circle,43.5676,-72.642
Bellevue,OH,7/27/2019,fireball,41.2446,-82.8459
Levittown,NY,7/27/2019,sphere,40.7228,-73.517
Stigler,OK,7/27/2019,cigar,35.2935,-95.1519
Cedar Lake,IN,7/27/2019,cigar,41.3648,-87.4411
Waianae,HI,7/28/2019,light,21.457,-158.173
Freeport,IL,7/28/2019,light,42.3238,-89.6218
Bayonne,NJ,7/28/2019,teardrop,40.6687,-74.1143
Foster,RI,7/28/2019,sphere,41.7904,-71.6967
Fargo,ND,7/28/2019,light,46.85898941,-96.84602145
Montreal,QC,7/28/2019,sphere,45.51408695,-73.58579955
Destin,FL,7/28/2019,light,30.39798354,-86.4573
Richmond,IN,7/28/2019,light,39.8380098,-84.90525098
Newark,OH,7/28/2019,circle,40.1241,-82.3828
Richmond,VA,7/28/2019,triangle,37.55860754,-77.50798002
Orlando,FL,7/28/2019,oval,28.5192467,-81.35409598
Grass Valley,CA,7/28/2019,other,39.16412531,-121.0234833
Myrtle Beach,SC,7/28/2019,other,33.68315,-78.9395391
Tempe,AZ,7/28/2019,light,33.41403567,-111.9209196
Portland,IN,7/28/2019,light,40.4165,-84.9765
Fort Lee,NJ,7/28/2019,light,40.8483,-73.9725
Rawlins,WY,7/28/2019,light,41.7911,-107.2387
Clinton,TN,7/28/2019,other,36.10330159,-84.20502063
Lake Stevens,WA,7/28/2019,diamond,48.0431,-122.059
Midlothian,VA,7/28/2019,circle,37.47343471,-77.66057112
Kettle Falls,WA,7/28/2019,unknown,48.7409,-118.0956
Corona,CA,7/28/2019,cylinder,33.85916486,-117.5794465
Rio Rancho,NM,7/29/2019,oval,35.26685241,-106.7217166
Puyallup,WA,7/29/2019,light,47.14574064,-122.2924202
Salina,UT,7/29/2019,light,38.9514,-111.8308
Watsonville,CA,7/29/2019,egg,36.95027519,-121.7247421
San Pedro,CA,7/29/2019,unknown,33.73561209,-118.2994093
Palm Desert,CA,7/29/2019,formation,33.73731449,-116.3779536
Orlando,FL,7/29/2019,light,28.5192467,-81.35409598
Charleston,SC,7/29/2019,light,32.80388723,-79.96885661
Crestview,FL,7/29/2019,disk,30.68732909,-86.59313636
Folsom,CA,7/30/2019,triangle,38.67384449,-121.1487568
Southlake,TX,7/30/2019,light,32.9516,-97.1515
Southlake,TX,7/30/2019,fireball,32.9516,-97.1515
Sharon,PA,7/30/2019,light,41.235,-80.4971
Powell River,BC,7/30/2019,formation,50.0163,-124.3226
Washago,ON,7/30/2019,circle,44.75,-79.3333
Middleboro,MA,7/30/2019,triangle,41.88475432,-70.87260617
Newport,TN,7/30/2019,light,35.95076,-83.18667333
Victorville,CA,7/30/2019,sphere,34.52017592,-117.3407393
Climax Springs,MO,7/30/2019,circle,38.1042,-93.0502
Crow Agency,MT,7/30/2019,formation,45.6293,-107.3268
Farmington,ME,7/30/2019,light,44.6536,-70.1149
Folly Beach,SC,7/30/2019,light,32.6552,-79.9404
Isle of Palms,SC,7/30/2019,formation,32.8014,-79.7639
Albuquerque,NM,7/30/2019,light,35.10348122,-106.6124752
Folly Beach,SC,7/30/2019,circle,32.6552,-79.9404
Albuquerque,NM,7/30/2019,flash,35.10348122,-106.6124752
Sicklerville,NJ,7/30/2019,cross,39.7401,-74.9709
Shelby,MI,7/30/2019,oval,43.6101,-86.3495
Fernandina Beach,FL,7/31/2019,disk,30.60200435,-81.52687174
Lakeville,MN,7/31/2019,flash,44.6307,-93.3034
Millbrook,NY,7/31/2019,fireball,41.7912,-73.66
Los Angeles,CA,7/31/2019,other,34.05070709,-118.2799351
Astoria,NY,7/31/2019,cigar,40.76716222,-73.91944063
Chattanooga,TN,7/31/2019,fireball,35.05513711,-85.27057025
Shreveport,LA,7/31/2019,triangle,32.44424292,-93.7688228
Manson,WA,7/31/2019,light,47.9799,-120.1555
Portland,IN,7/31/2019,light,40.4165,-84.9765
Oologah,OK,7/31/2019,other,36.4345,-95.7358
Lakeville,MN,7/31/2019,unknown,44.6307,-93.3034
Los Angeles,CA,8/1/2019,diamond,34.05070709,-118.2799351
New Johnsonville,TN,8/1/2019,fireball,36.0039,-87.9428
Saint Peter,MN,8/1/2019,sphere,44.3341,-94.0617
Great Falls,MT,8/1/2019,light,47.46981803,-111.3317279
South Haven,MI,8/1/2019,circle,42.4231,-86.2187
Decatur,TX,8/1/2019,unknown,33.2859,-97.5127
Pensacola,FL,8/1/2019,triangle,30.46293538,-87.26545409
Ashland,OR,8/1/2019,light,42.1563,-122.5298
Hattieville,AR,8/1/2019,disk,35.3183,-92.766
San Diego,CA,8/1/2019,light,32.78722908,-117.1402677
Dexter,MI,8/1/2019,oval,42.3383,-83.8895
Gouldsboro,PA,8/1/2019,triangle,41.2416,-75.5322
Wayne,NJ,8/1/2019,other,40.94856006,-74.24151141
Midway,FL,8/1/2019,unknown,30.4924,-84.4473
Bar Harbor,ME,8/2/2019,light,44.3761,-68.2757
Boise,ID,8/2/2019,fireball,43.6144452,-116.244678
Holiday,FL,8/2/2019,other,28.19683671,-82.75373291
Williamsport,PA,6/2/2019,sphere,41.38124009,-76.82344057
Saint Paul,MN,8/2/2019,circle,44.95305527,-93.11475467
Oshkosh,WI,8/2/2019,light,44.01753441,-88.55902634
Salt Lake City,UT,8/2/2019,light,40.70446486,-111.8821388
Branford,CT,8/2/2019,cylinder,41.2864,-72.7956
Niagara,ON,8/3/2019,triangle,43.6827,-79.373
Anderson,CA,8/3/2019,disk,40.4458,-122.3548
Rock Island,IL,8/3/2019,cylinder,41.48769,-90.57226875
Deer Creek,MN,8/3/2019,circle,46.37,-95.3309
South Bend,IN,8/3/2019,cross,41.67504576,-86.27111065
Atlantic City,NJ,8/3/2019,unknown,39.37958071,-74.45456071
Wilmington,NC,8/3/2019,other,34.23837495,-77.87846769
Apopka,FL,8/3/2019,disk,28.69406628,-81.52357566
West Chester,OH,8/3/2019,formation,39.33755164,-84.40442295
West Chester,OH,8/3/2019,cylinder,39.33755164,-84.40442295
Huntington,WV,8/3/2019,oval,38.38493858,-82.41140524
West Chester,OH,8/3/2019,disk,39.33755164,-84.40442295
Louisville,OH,8/3/2019,fireball,40.8742,-81.2326
Woonsocket,RI,8/3/2019,circle,41.998,-71.4941
Vienna,WV,8/3/2019,sphere,39.328,-81.5255
Bondurant,IA,8/3/2019,sphere,41.7286,-93.4575
Harrisburg,MO,8/3/2019,light,39.1394,-92.4461
Willard,OH,8/3/2019,light,41.0894,-82.69805588
Lewis,IA,8/3/2019,sphere,41.3101,-95.0997
Livingston,TX,8/3/2019,sphere,30.72681818,-94.82404773
Brookneal,VA,8/3/2019,flash,37.0754,-78.9249
Idaho Falls,ID,8/4/2019,formation,43.47350769,-112.0036244
Vancouver,WA,8/4/2019,oval,45.65808015,-122.5849084
Yukon,OK,8/4/2019,cigar,35.53289048,-97.77063492
East Olympia,WA,8/4/2019,cigar,46.9676,-122.8357
Flushing,NY,8/4/2019,changing,40.75329127,-73.81827795
Midvale,UT,8/4/2019,circle,40.6092,-111.8819
Knoxville,TN,8/4/2019,circle,35.96156134,-83.98011529
Tampa,FL,8/4/2019,light,28.00681436,-82.47646101
Vienna,IL,8/4/2019,formation,37.4245,-88.8862
Mammoth Lakes,CA,1/5/2019,oval,37.587,-118.8422
Stratford,CT,1/15/2019,circle,41.21305351,-73.12902108
Hatfield,MA,3/14/2019,rectangle,42.3868,-72.6065
Centerville,IA,8/4/2019,cigar,40.7074,-92.9213
Samson,AL,8/4/2019,sphere,31.1155,-86.0462
Marcus Hook,PA,8/5/2019,circle,39.8431,-75.4662
Victoria,BC,8/5/2019,light,48.45668562,-123.383972
Norfolk,VA,8/5/2019,unknown,36.88938336,-76.26208236
Trinity,NC,8/5/2019,light,35.8032,-79.9827
New Braunfels,TX,3/20/2019,triangle,29.71726241,-98.09779007
Oshawa,ON,3/26/2019,other,43.92118698,-78.86515721
Punta Gorda,FL,3/27/2019,disk,26.91562632,-81.99651729
Mesquite,NV,3/30/2019,chevron,36.79222,-114.12792
Southgate,MI,4/13/2019,sphere,42.2061,-83.206
Naples,FL,4/15/2019,cigar,26.19318197,-81.73703022
Aliquippa,PA,8/5/2019,light,40.589,-80.3279
Greeneville,TN,8/5/2019,unknown,36.1816,-82.8417
Chatsworth,GA,8/5/2019,circle,34.7417,-84.7635
Whitsett,NC,8/5/2019,circle,36.0413,-79.6064
Amherst,NH,8/5/2019,formation,42.8706,-71.6124
Lake City,FL,8/5/2019,light,30.14528462,-82.63721731
Dover,NH,8/5/2019,light,43.18716429,-70.90978393
Hillsboro,OR,4/29/2019,formation,45.53464439,-122.9311911
Salt Lake City,UT,5/4/2019,circle,40.70446486,-111.8821388
Duluth,MN,5/5/2019,chevron,46.81722209,-92.12978895
El Paso,TX,5/6/2019,disk,31.79232818,-106.3748489
Twin Falls,ID,5/6/2019,oval,42.43310923,-114.5794446
Clanton,AL,5/8/2019,rectangle,32.83452903,-86.66456452
Twin Falls,ID,5/8/2019,light,42.43310923,-114.5794446
Bellingham,WA,5/10/2019,light,48.74688635,-122.4446201
Morgan City,LA,5/10/2019,cigar,29.69969231,-91.06912308
Cortland,OH,8/6/2019,circle,41.3598,-80.7148
Lakeland,FL,8/6/2019,disk,28.04722715,-81.95884978
Brigantine,NJ,8/6/2019,unknown,39.4079,-74.3665
Kodiak,AK,8/6/2019,changing,57.79,-152.4072
Blacksburg,VA,5/11/2019,fireball,37.25986911,-80.42627073
Hudson,NH,5/11/2019,triangle,42.7618,-71.4119
Aurora,IL,5/13/2019,circle,41.76135531,-88.31528938
Arvada,CO,8/6/2019,other,39.82714549,-105.110184
Richland Center,WI,8/7/2019,light,43.3775,-90.425
Lincoln,NE,8/7/2019,other,40.80091454,-96.67416753
Blytheville,AR,8/7/2019,disk,35.8711,-89.9046
Collierville,TN,8/7/2019,cigar,35.09080422,-89.65108133
Post Falls,ID,8/7/2019,disk,47.77771613,-117.0145032
New Orleans,LA,5/13/2019,other,29.96590338,-90.07844564
Berthoud,CO,5/14/2019,circle,40.2912,-105.0816
Myrtle Beach,SC,5/14/2019,oval,33.68315,-78.9395391
Montebello,CA,5/14/2019,other,34.0092,-118.1083
Brandon,SD,5/14/2019,circle,43.5873,-96.6029
Pawleys Island,SC,5/14/2019,formation,33.4425,-79.1588
Myrtle Beach,SC,5/14/2019,light,33.68315,-78.9395391
Belle Fourche,SD,5/14/2019,light,44.9453,-103.8032
Accomac,VA,5/14/2019,sphere,37.7022,-75.6592
Rio Rico,AZ,8/7/2019,formation,31.5017,-111.0688
Santa Barbara,CA,8/7/2019,flash,34.3170381,-119.7205414
Grand Terrace,CA,8/7/2019,cylinder,34.0339,-117.3136
Lake Orion,MI,8/7/2019,unknown,42.75110164,-83.27271393
Valdez,AK,8/8/2019,circle,61.4065,-145.667
Anderson,IN,8/8/2019,light,40.10373239,-85.67924319
Knoxville,TN,8/8/2019,triangle,35.96156134,-83.98011529
Bellingham,WA,8/8/2019,light,48.74688635,-122.4446201
New Port Richey,FL,8/8/2019,other,28.24270049,-82.67723901
Crestwood,KY,8/8/2019,other,38.3439,-85.4299
Parrish,FL,8/8/2019,sphere,27.5701,-82.3798
Whitefish,MT,7/12/2019,circle,48.4111,-114.3376
New Haven,CT,5/15/2019,light,41.31286253,-72.91803187
Moyock,NC,5/15/2019,light,36.4726,-76.1579
Apple Valley,CA,5/15/2019,cigar,34.53761649,-117.1731005
Middletown,VA,5/15/2019,disk,39.0255,-78.2696
Laguna Beach,CA,5/15/2019,unknown,33.55561757,-117.7857635
Perry,OK,5/15/2019,circle,36.3041,-97.2824
Safety Harbor,FL,8/8/2019,circle,28.0145,-82.6923
West Palm Beach,FL,8/8/2019,cross,26.70504529,-80.1351401
Saint Augustine,FL,8/8/2019,circle,29.8790313,-81.36659178
Pasadena,CA,8/8/2019,light,34.12998527,-118.1425735
Danville,IL,8/8/2019,light,40.15248,-87.649332
Ocean Isle Beach,NC,8/8/2019,light,33.9259,-78.4498
Aurora,IL,8/8/2019,teardrop,41.76135531,-88.31528938
Grand Terrace,CA,8/9/2019,cylinder,34.0339,-117.3136
Federal Way,WA,8/9/2019,triangle,47.30653738,-122.3429007
Gloversville,NY,8/9/2019,light,43.1313,-74.3571
Wysox,PA,5/16/2019,circle,41.7955,-76.3576
Middleton,WI,5/16/2019,disk,43.1184,-89.5207
Ashland City,TN,5/16/2019,oval,36.2833,-87.0121
Oak Island,NC,5/16/2019,fireball,33.9083,-78.0785
Lake Placid,FL,5/16/2019,disk,27.2419,-81.3564
Spokane,WA,5/16/2019,light,47.68357629,-117.3863311
Simpsonville,KY,5/16/2019,unknown,38.2238,-85.3603
Phoenix,AZ,8/9/2019,unknown,33.53538055,-112.04946
Macomb,MI,8/9/2019,cigar,42.65611841,-82.9233927
Aberdeen,WA,8/9/2019,flash,46.8841,-123.995
Lawton,OK,8/10/2019,light,34.63522412,-98.47288176
Timpson,TX,8/10/2019,unknown,31.8895,-94.4362
Fort Myers,FL,5/17/2019,circle,26.58139709,-81.84065303
Ponchatoula,LA,5/17/2019,other,30.4009,-90.3936
Fort Myers,FL,5/17/2019,egg,26.58139709,-81.84065303
Anderson,IN,5/17/2019,circle,40.10373239,-85.67924319
Lincoln,MI,5/17/2019,formation,44.7243,-83.455
Winchester,KY,8/10/2019,circle,37.96956667,-84.14765926
Charlotte,NC,8/10/2019,circle,35.20580084,-80.82639156
Columbia,MD,8/10/2019,unknown,39.20146013,-76.85523228
Augusta,GA,8/10/2019,unknown,33.45848327,-82.0411777
Palm Springs,CA,8/11/2019,fireball,33.80016512,-116.5353729
Brigantine,NJ,8/11/2019,cigar,39.4079,-74.3665
San Diego,CA,5/18/2019,changing,32.78722908,-117.1402677
Enfield,CT,5/18/2019,unknown,41.98440349,-72.55750349
Bethel Park,PA,5/18/2019,rectangle,40.3224,-80.0355
Fortson,GA,5/18/2019,egg,32.6337,-85.0055
Warwick,RI,5/18/2019,light,41.7156845,-71.42906015
Phoenix,AZ,8/11/2019,egg,33.53538055,-112.04946
Perkins,OK,8/11/2019,fireball,35.9145,-97.0521
Lubbock,TX,8/11/2019,other,33.54170374,-101.903819
Thompson's Station,TN,8/11/2019,cylinder,35.8172,-86.9395
Hudson,MA,8/11/2019,flash,42.3897,-71.5401
San Antonio,TX,8/12/2019,light,29.48886592,-98.47524044
Leominster,MA,8/12/2019,triangle,42.5244,-71.7657
Modesto,CA,8/12/2019,oval,37.66861324,-120.9944224
Zionsville,IN,5/13/2019,cigar,39.9831,-86.2876
Hogansville,GA,5/18/2019,fireball,33.1846,-84.9076
Spokane,WA,6/5/2019,other,47.68357629,-117.3863311
Lagrangeville,NY,5/18/2019,changing,41.6684,-73.7225
Martensville,SK,5/18/2019,light,52.2834,-106.6679
Lake Worth,FL,5/19/2019,unknown,26.60020571,-80.12513921
Fairfax,VA,5/19/2019,disk,38.84920832,-77.31409307
Bradenton,FL,5/19/2019,sphere,27.4609671,-82.5293294
West Des Moines,IA,8/12/2019,triangle,41.56389414,-93.77826066
Modesto,CA,8/12/2019,disk,37.66861324,-120.9944224
El Reno,OK,8/12/2019,unknown,35.4931,-97.9812
Alamogordo,NM,8/12/2019,formation,32.84206825,-105.970481
Las Cruces,NM,8/12/2019,light,32.32767214,-106.7548956
Pearce,AZ,8/12/2019,cigar,31.8682,-109.3315
Las Cruces,NM,8/12/2019,circle,32.32767214,-106.7548956
Seattle,WA,8/12/2019,chevron,47.60904639,-122.3260283
East Alton,IL,6/19/2019,sphere,38.8736,-90.0732
Independence,MO,6/20/2019,sphere,39.07880845,-94.38608575
Los Angeles,CA,6/29/2019,disk,34.05070709,-118.2799351
Fredericton,NB,6/30/2019,cigar,45.85845372,-66.63156283
gainesville,GA,7/2/2019,chevron,34.31321771,-83.80587491
Moran,MI,7/3/2019,formation,46.0727,-84.9547
Port Saint Lucie,FL,7/4/2019,changing,27.2856863,-80.36344364
Walton,NY,7/4/2019,fireball,42.1614,-75.1768
Bernalillo,NM,7/4/2019,circle,35.3488,-106.5586
La Porte,IN,5/19/2019,circle,41.62047596,-86.73390577
McDonough,GA,5/19/2019,light,33.46189879,-84.12783952
Spokane,WA,5/19/2019,light,47.68357629,-117.3863311
Gaithersburg,MD,5/19/2019,triangle,39.14072038,-77.20584417
Columbus,GA,5/19/2019,circle,32.50270233,-84.93712624
York,SC,5/19/2019,oval,34.9885,-81.2048
Palm Bay,FL,5/20/2019,unknown,27.99618065,-80.6510457
Jonesborough,TN,5/20/2019,sphere,36.3022,-82.4825
Marysville,WA,5/20/2019,triangle,48.06684122,-122.2019905
Morton,MS,5/20/2019,cigar,32.2967,-89.6665
Las Cruces,NM,8/12/2019,oval,32.32767214,-106.7548956
Utica,NY,8/12/2019,sphere,43.11854496,-75.17409884
Waynesboro,PA,8/12/2019,unknown,39.7559,-77.5778
Tacoma,WA,8/13/2019,light,47.21257224,-122.4597205
Chico,CA,8/13/2019,other,39.77638902,-121.8275963
Chesapeake,VA,8/13/2019,circle,36.7520477,-76.28183086
Vancouver,BC,8/13/2019,teardrop,49.26892573,-123.1122398
Las Cruces,NM,8/13/2019,oval,32.32767214,-106.7548956
Denver,CO,8/13/2019,circle,39.74512637,-104.9593459
Kirkland,WA,7/5/2019,other,47.69328259,-122.1966441
Coralville,IA,7/6/2019,changing,41.6946,-91.5954
Snellville,GA,7/7/2019,disk,33.83093333,-84.02016667
Scottsdale,AZ,7/8/2019,circle,33.56413757,-111.905083
Great Falls,MT,7/9/2019,light,47.46981803,-111.3317279
Fort Worth,TX,5/20/2019,rectangle,32.757366,-97.34710441
Edmonton,AB,5/20/2019,disk,53.52298881,-113.5039614
Gulf Shores,AL,5/20/2019,triangle,30.250995,-87.68415
Palm Harbor,FL,5/20/2019,unknown,28.08799009,-82.73884458
Springfield,MO,5/21/2019,circle,37.19880654,-93.30922289
Kent,CT,5/21/2019,light,41.7287,-73.4551
Stow,OH,5/21/2019,other,41.1741,-81.4389
Palm bay,FL,5/21/2019,disk,27.99618065,-80.6510457
Kalamazoo,MI,8/14/2019,unknown,42.28467812,-85.60508273
Marietta,GA,8/14/2019,light,33.96188746,-84.5102132
Oklahoma City,OK,8/14/2019,sphere,35.47186178,-97.5263035
Bakersfield,CA,8/14/2019,cylinder,35.34399793,-119.0408926
Abbott,TX,8/14/2019,light,31.8801,-97.0901
Greencastle,IN,8/15/2019,formation,39.6597,-86.8663
Lakewood,WA,8/15/2019,triangle,47.16019821,-122.530457
Saint Clair Shores,MI,8/15/2019,teardrop,42.49333837,-82.89567558
Sisters,OR,7/10/2019,other,44.4102,-121.9283
Medicine Hat,AB,7/10/2019,cigar,49.99138154,-110.5690179
Vancouver,WA,7/11/2019,light,45.65808015,-122.5849084
Sunbury,PA,7/11/2019,cigar,40.8322,-76.7388
Madison,OH,7/11/2019,light,41.7932,-81.0578
Burbank,IL,7/11/2019,circle,41.7452,-87.7703
Nags Head,NC,7/11/2019,other,35.885,-75.5911
Union,OR,7/11/2019,changing,45.1534,-117.7723
Bellingham,WA,7/11/2019,circle,48.74688635,-122.4446201
Corning,CA,5/21/2019,light,39.9259,-122.2835
Erwin,NC,5/21/2019,oval,35.2997,-78.7167
Apache Junction,AZ,5/21/2019,circle,33.4151,-111.5496
Spencer,NC,5/21/2019,chevron,35.695,-80.4321
Plano,TX,5/21/2019,unknown,33.0481215,-96.74114607
West Liberty,IA,5/21/2019,sphere,41.5659,-91.2661
Decatur,AL,5/21/2019,triangle,34.57360703,-86.9421027
Pearsall,TX,5/21/2019,unknown,28.8683,-99.1074
Ormond Beach,FL,5/21/2019,unknown,29.30349483,-81.18193621
Hammond,NY,8/15/2019,light,44.4468,-75.6821
Lakewood,WA,8/15/2019,fireball,47.16019821,-122.530457
Concord,NC,8/15/2019,flash,35.40326904,-80.62708466
New York,NY,8/15/2019,light,40.74430707,-73.98772448
Lebanon Junction,KY,8/15/2019,formation,37.8649,-85.7175
Asheville,NC,8/15/2019,oval,35.58215753,-82.55326562
Comer,GA,8/15/2019,teardrop,34.0697,-83.1111
Winfield,WV,8/15/2019,light,38.5065,-81.9252
Tiburon,CA,8/15/2019,cigar,37.8914,-122.4728
Anchorage,AK,8/16/2019,light,61.18196014,-149.8425268
Bozeman,MT,7/12/2019,light,45.70981012,-111.0535749
Sarasota,FL,7/12/2019,unknown,27.31073444,-82.49044026
Bridgeport,CT,7/12/2019,triangle,41.19200961,-73.20145714
Coeur d'Alene,ID,7/12/2019,oval,47.70035253,-116.7896063
Boiling Springs,SC,7/12/2019,light,35.0519,-81.9736
Mckeesport,PA,7/12/2019,light,40.32757429,-79.83367929
Saint Clair Shores,MI,5/21/2019,sphere,42.49333837,-82.89567558
Aldergrove,BC,5/22/2019,changing,49.0713,-122.4977
Spicer,MN,5/22/2019,cigar,45.2384,-94.9659
East Troy,WI,5/22/2019,unknown,42.7945,-88.3994
Federal Way,WA,5/22/2019,circle,47.30653738,-122.3429007
New York,NY,5/22/2019,cigar,40.74430707,-73.98772448
Ormond Beach,FL,5/22/2019,cigar,29.30349483,-81.18193621
Virginia Beach,VA,5/22/2019,fireball,36.83730134,-76.06194815
Newberry,FL,5/22/2019,circle,29.6313,-82.5814
Clanton,AL,8/16/2019,cigar,32.83452903,-86.66456452
Greenville,KY,8/16/2019,formation,37.1614,-87.1822
Calgary,AB,8/16/2019,diamond,51.04237871,-114.0574425
Memphis,TN,8/16/2019,unknown,35.12547266,-89.92692482
Schertz,TX,8/16/2019,circle,29.5892,-98.2939
Rochester,NY,8/16/2019,circle,43.15504152,-77.61785896
Putnam,CT,7/12/2019,light,41.90451515,-71.86787879
Centreville,VA,7/13/2019,light,38.8439,-77.46703166
Logan,IA,7/13/2019,light,41.6489,-95.7629
Livingston,CA,7/13/2019,cylinder,37.345695,-120.754515
Canton,OH,7/13/2019,rectangle,40.84330719,-81.40800022
Loveland,OH,7/13/2019,sphere,39.2689,-84.2638
Arlington,VT,7/13/2019,light,43.1217,-73.1754
Toms River,NJ,7/13/2019,circle,39.98447273,-74.19884457
Stockton Springs,ME,5/22/2019,unknown,44.5211,-68.8704
Lopez Island,WA,5/22/2019,diamond,48.4955,-122.8729
Meridian,ID,5/23/2019,cylinder,43.60516382,-116.4086523
St Louis,MO,5/23/2019,unknown,38.62382493,-90.3085277
Elkins Park,PA,5/23/2019,sphere,40.071,-75.1251
Houston,TX,5/23/2019,unknown,29.7774937,-95.45122045
Rock Island,TN,5/23/2019,light,35.702,-85.6044
Payson,UT,8/17/2019,light,40.0444,-111.7322
Winchendon,MA,8/17/2019,cigar,42.661,-72.0489
Provo,UT,8/17/2019,sphere,40.27123157,-111.6240043
Rockwall,TX,8/17/2019,disk,32.89939565,-96.43098986
Glencoe,MN,8/17/2019,triangle,44.7646,-94.1753
Brentwood,TN,8/17/2019,oval,36.00187561,-86.78081463
Olympia,WA,8/17/2019,triangle,47.03031595,-122.896931
Madison,WI,7/13/2019,diamond,43.06651417,-89.38736175
Roscommon,MI,7/13/2019,fireball,44.4669,-84.6129
Tacoma,WA,7/13/2019,circle,47.21257224,-122.4597205
St Louis,MO,7/13/2019,light,38.62382493,-90.3085277
De Pere,WI,7/14/2019,other,44.3906,-88.031
Lake Mary,FL,5/23/2019,fireball,28.7578,-81.3397
Kissimmee,FL,5/23/2019,light,28.25503467,-81.42949196
Fort Yates,ND,5/24/2019,unknown,46.1035,-100.7029
Wilsonville,OR,5/24/2019,formation,45.3084,-122.7799
Mitchell,SD,5/24/2019,formation,43.7183,-98.0262
Hazel green,AL,5/24/2019,light,34.9341,-86.5803
Staunton,VA,5/24/2019,chevron,38.13703786,-79.06304078
Armstrong,BC,5/24/2019,cigar,50.45,-119.1833
Grants Pass,OR,8/18/2019,light,42.46357702,-123.3706925
Missoula,MT,7/14/2019,light,46.92450254,-114.0224055
Kahului,HI,8/18/2019,cigar,20.88045135,-156.4690459
Newnan,GA,8/18/2019,light,33.3943552,-84.76770679
Laguna Hills,CA,8/18/2019,circle,33.60561304,-117.7171043
Half Moon Bay,CA,8/18/2019,light,37.4436,-122.4124
Hamilton,MT,8/18/2019,circle,46.1612,-114.1401
Dahlonega,GA,8/18/2019,light,34.53254842,-83.98485789
Hamilton,MT,8/18/2019,rectangle,46.1612,-114.1401
Pittsburgh,PA,7/14/2019,disk,40.44309195,-79.97424169
Meadville,PA,7/14/2019,sphere,41.64661197,-80.17316581
Avon,OH,7/14/2019,cigar,41.4485,-82.0186
Woodbridge,CT,7/14/2019,fireball,41.35298857,-73.00198857
Alpine,NJ,7/14/2019,circle,40.9627,-73.9164
Cincinnati,OH,7/14/2019,triangle,39.17450312,-84.48136299
Monroe,GA,7/14/2019,cigar,33.82505422,-83.69159518
Dundalk,MD,7/14/2019,light,39.2575,-76.4951
Wallingford,CT,7/1/2019,unknown,41.457,-72.8232
Sublimity,OR,5/24/2019,formation,44.8688,-122.7379
Coeur d'Alene,ID,5/24/2019,other,47.70035253,-116.7896063
Pine Valley,UT,5/24/2019,other,37.471,-113.5115
Lakeland,FL,5/24/2019,circle,28.04722715,-81.95884978
Nanaimo,BC,5/24/2019,other,49.18105398,-123.9967366
Groton,VT,5/24/2019,light,44.272,-72.2566
Lakeland,FL,5/24/2019,cylinder,28.04722715,-81.95884978
Shelton,CT,8/19/2019,unknown,41.3158,-73.1354
Dalton,GA,8/19/2019,light,34.7806506,-84.93673735
Milwaukee,WI,8/19/2019,flash,43.05174403,-87.95998544
Kensington,MD,8/19/2019,other,39.02560149,-77.07718806
Tonkawa,OK,8/19/2019,cylinder,36.6052,-97.326
Auburn,WA,8/19/2019,diamond,47.29995649,-122.1808829
Creston,NC,8/19/2019,cylinder,36.4654,-81.6496
Seaside,CA,8/19/2019,sphere,36.6249,-121.8257
Lynnwood,WA,8/19/2019,light,47.82361835,-122.2948047
Alpine,TX,8/19/2019,other,29.98235385,-103.4831154
Clermont,FL,8/19/2019,changing,28.51724828,-81.78506552
Columbia,MO,7/14/2019,rectangle,38.91147669,-92.30242962
Cranston,RI,7/15/2019,other,41.77119239,-71.46207462
Stratford,CT,7/15/2019,changing,41.21305351,-73.12902108
Etobicoke,ON,7/15/2019,oval,43.67407858,-79.55926244
Anaheim,CA,7/15/2019,triangle,33.83243274,-117.8913252
Sandy,UT,7/15/2019,disk,40.5744997,-111.8460303
Minnetonka,MN,7/15/2019,disk,44.9198,-93.4832
Tracy,CA,7/16/2019,disk,37.705,-121.4577154
Racine,WI,7/16/2019,light,42.72967247,-87.8280007
Boise,ID,5/24/2019,other,43.6144452,-116.244678
Burlington,MA,5/24/2019,circle,42.50509476,-71.20454091
Barrington,NH,5/24/2019,light,43.2035,-71.0519
Denver,CO,5/24/2019,other,39.74512637,-104.9593459
Apache Junction,AZ,5/24/2019,circle,33.4151,-111.5496
Mesa,AZ,5/24/2019,circle,33.42126454,-111.7727973
Madison,WI,5/24/2019,light,43.06651417,-89.38736175
Saxtons River,VT,5/24/2019,other,43.1454,-72.5069
Elizabeth,NJ,8/19/2019,light,40.6625543,-74.20179525
Pine Bush,NY,8/19/2019,light,41.6182,-74.3361
New York,NY,8/20/2019,circle,40.74430707,-73.98772448
Nobleboro,ME,8/20/2019,circle,44.1109,-69.482
American Fork,UT,8/20/2019,formation,40.393,-111.7838
Salyersville,KY,8/20/2019,circle,37.7339,-83.0836
Hot Springs,AR,8/21/2019,other,34.45056604,-93.03055566
Jackson,OH,8/21/2019,other,39.0245,-82.6212
Farwell,MI,7/16/2019,oval,43.8213,-84.884
Surprise,AZ,7/16/2019,formation,33.63271553,-112.3725228
Chicago,IL,7/16/2019,egg,41.87991242,-87.66801796
Coker,AL,7/17/2019,other,33.2656,-87.6873
Alma,AR,7/17/2019,circle,35.4656,-94.199
Apache,OK,7/17/2019,light,34.9131,-98.4139
Asheville,NC,5/24/2019,sphere,35.58215753,-82.55326562
Champlin,MN,5/24/2019,light,45.1889,-93.3975
Avalon,NJ,5/24/2019,other,39.1012,-74.7177
Tampa,FL,5/24/2019,cone,28.00681436,-82.47646101
Starrucca,PA,5/24/2019,changing,41.9045,-75.419
Raynham,MA,5/24/2019,other,41.9391,-71.0586
West Forks,ME,5/24/2019,other,45.3649,-69.8989
Otis,OR,8/21/2019,flash,45.0038,-123.8973
Indianapolis,IN,8/22/2019,flash,39.80764885,-86.14221403
Zimmerman,MN,8/22/2019,other,45.4508,-93.5855
Hilbert,WI,8/22/2019,changing,44.1422,-88.1902
Apollo Beach,FL,8/22/2019,circle,27.7713,-82.4143
Apollo beach,FL,8/22/2019,circle,27.7713,-82.4143
Paulsboro,NJ,8/23/2019,unknown,39.8353,-75.1954
Little Rock,AR,7/17/2019,light,34.73753628,-92.36319236
Benicia,CA,7/17/2019,light,38.1129,-122.1331
Austin,TX,7/17/2019,light,30.30846944,-97.76011171
Altoona,PA,7/17/2019,circle,40.53611027,-78.39727723
Asheville,NC,7/17/2019,sphere,35.58215753,-82.55326562
Laredo,TX,7/18/2019,sphere,27.62533547,-99.51398212
Warren,OH,7/18/2019,cigar,41.23654444,-80.8044875
Spokane,WA,7/18/2019,cigar,47.68357629,-117.3863311
Portland,TX,1/4/2019,formation,27.8923,-97.3187
Beverly,NJ,4/18/2019,disk,40.0501,-74.9212
Los Angeles,CA,5/1/2019,circle,34.05070709,-118.2799351
Meridian,ID,5/16/2019,diamond,43.60516382,-116.4086523
Byram,MS,6/24/2019,oval,32.1861,-90.254
Flora,IL,6/27/2019,sphere,38.6712,-88.4973
Monticello,IN,6/27/2019,unknown,40.7735,-86.7154
Canton,CT,6/28/2019,circle,41.8245,-72.8937
Orwell,VT,5/24/2019,cylinder,43.8008,-73.2984
Gansevoort,NY,5/24/2019,formation,43.1952,-73.6846
Ingleside,ON,5/24/2019,other,45,-75
Lebanon,ME,5/24/2019,light,43.3997,-70.9007
Phoenix,AZ,5/24/2019,circle,33.53538055,-112.04946
Tonto Basin,AZ,5/24/2019,rectangle,33.8317,-111.2946
Savannah,GA,8/23/2019,chevron,32.02970094,-81.13525336
Santa Fe,NM,7/18/2019,sphere,35.66108268,-105.9539071
Ashuelot,NH,7/18/2019,fireball,42.7776,-72.4237
Franklinville,NJ,7/18/2019,flash,39.6182,-75.0757
peshastin,WA,7/19/2019,oval,47.5113,-120.6263
Calgary,AB,7/19/2019,other,51.04237871,-114.0574425
Fostoria,OH,7/19/2019,triangle,41.1628,-83.3976
Camby,IN,7/19/2019,other,39.6319,-86.3026
Moravia,IA,7/1/2019,circle,40.8778,-92.825
Saint Joseph,MI,7/1/2019,sphere,42.0569,-86.4563
Euclid,OH,7/3/2019,flash,41.59848462,-81.51722154
Smithfield,VA,7/3/2019,sphere,37.0048449,-76.66419184
Rich Hill,MO,7/4/2019,circle,38.1,-94.376
Chicago,IL,7/4/2019,disk,41.87991242,-87.66801796
Fontana,CA,7/4/2019,triangle,34.12167083,-117.4599851
Laconia,NH,5/24/2019,light,43.56406941,-71.48186235
Brockport,NY,5/24/2019,formation,43.2508,-77.9246
Kingman,AZ,5/24/2019,fireball,35.2201088,-113.9018102
Pasco,WA,5/24/2019,triangle,46.41000734,-118.9094881
Saint Paul,MN,5/25/2019,formation,44.95305527,-93.11475467
Camp Verde,AZ,5/25/2019,light,34.4862,-111.7808
Lawrenceburg,TN,5/25/2019,formation,35.2772,-87.4127
Norfolk,NE,5/25/2019,formation,42.01855676,-97.45228378
Orlando,FL,4/7/2019,circle,28.5192467,-81.35409598
Kingsport,TN,3/29/2019,rectangle,36.50270386,-82.5479583
Auburn,WA,5/17/2019,light,47.29995649,-122.1808829
Gleason,WI,5/26/2019,formation,45.3692,-89.4253
Mount Shasta,CA,7/19/2019,chevron,41.3181,-122.3202
Palm Bay,FL,7/19/2019,light,27.99618065,-80.6510457
Fort Worth,TX,7/19/2019,circle,32.757366,-97.34710441
Monument,CO,7/19/2019,triangle,39.04823801,-104.8162854
Charlotte,NC,7/19/2019,light,35.20580084,-80.82639156
Bristol,CT,7/19/2019,fireball,41.68150531,-72.94058502
Meridian,ID,7/19/2019,flash,43.60516382,-116.4086523
Burleson,TX,7/4/2019,sphere,32.53071887,-97.30784906
Hinesville,GA,7/4/2019,light,31.8581,-81.5854
Palm Coast,FL,7/4/2019,sphere,29.540925,-81.20838512
Pico Rivera,CA,7/4/2019,light,33.9864,-118.0884
Justice,IL,7/4/2019,sphere,41.754,-87.8372
Colon,MI,7/4/2019,unknown,41.9741,-85.3367
Port Charlotte,FL,7/4/2019,triangle,26.98100661,-82.11690661
Colville,WA,7/4/2019,circle,48.6791,-117.7527
West Chester,OH,7/4/2019,triangle,39.33755164,-84.40442295
Erie,PA,7/4/2019,sphere,42.09974518,-80.07763388
Lincoln Park,MI,7/4/2019,teardrop,42.2462,-83.179
Fargo,ND,5/25/2019,formation,46.85898941,-96.84602145
Little Falls,MN,5/25/2019,light,45.9776,-94.4608
Chetek,WI,5/25/2019,other,45.2839,-91.7103
Saint George,UT,5/25/2019,formation,37.13106124,-113.5887632
Orleans,IN,5/25/2019,formation,38.5995,-86.3585
Marysville,CA,5/25/2019,unknown,39.1587,-121.4726
Verona,NJ,6/1/2019,circle,40.8331,-74.2427
Fayetteville,AR,6/4/2019,chevron,36.04787185,-94.04453778
Ashland,OR,6/8/2019,circle,42.1563,-122.5298
Calabasas,CA,6/8/2019,sphere,34.11886555,-118.6733034
Pasadena,CA,6/11/2019,unknown,34.12998527,-118.1425735
Challis,ID,6/17/2019,teardrop,44.652,-114.1543
Cumming,GA,6/18/2019,unknown,34.17941111,-84.14029454
Hardy,VA,6/20/2019,teardrop,37.1759,-79.8013
Lakeland,FL,6/21/2019,light,28.04722715,-81.95884978
Jay,ME,6/22/2019,sphere,44.5317,-70.2164
Lafayette,LA,7/19/2019,unknown,30.19079351,-92.04514239
Knoxville,TN,7/19/2019,other,35.96156134,-83.98011529
Colorado springs,CO,7/20/2019,light,38.8614783,-104.7803978
Lindon,UT,7/20/2019,unknown,40.322,-111.7467
Henderson,NE,7/20/2019,triangle,40.7712,-97.788
ZEPHYRHILLS,FL,7/20/2019,light,28.23611597,-82.27626613
Wales,WI,7/20/2019,fireball,43.002,-88.3769
Carrollton,TX,7/20/2019,changing,32.99435574,-96.89316586
New york,NY,7/20/2019,light,40.74430707,-73.98772448
Flushing,NY,7/5/2019,circle,40.75329127,-73.81827795
Santa Fe,NM,7/5/2019,rectangle,35.66108268,-105.9539071
Phoenix,AZ,7/5/2019,fireball,33.53538055,-112.04946
Lockhart,TX,7/5/2019,egg,29.8973,-97.6783
Belington,WV,7/5/2019,light,39.0492,-79.9561
Greensburg,PA,7/5/2019,circle,40.33569572,-79.55026848
Los Angeles,CA,7/5/2019,circle,34.05070709,-118.2799351
Indianapolis,IN,7/5/2019,oval,39.80764885,-86.14221403
Chico,CA,5/25/2019,other,39.77638902,-121.8275963
Hutchinson,MN,5/25/2019,formation,44.8994,-94.4101
Morehead,KY,5/25/2019,other,38.2075,-83.3989
Covington,KY,5/25/2019,triangle,39.06870833,-84.52891823
Moreno valley,CA,5/25/2019,light,33.92963148,-117.216031
Northumberland,PA,5/25/2019,formation,40.9258,-76.7568
Cranston,RI,5/25/2019,circle,41.77119239,-71.46207462
Rogue River,OR,3/14/2019,circle,42.5413,-123.1046
New York,NY,4/17/2019,light,40.74430707,-73.98772448
Kaysville,UT,6/23/2019,sphere,41.0285,-111.9205
Medford,OR,6/23/2019,egg,42.31514948,-122.8460668
elizabeth,PA,6/23/2019,sphere,40.2562,-79.8531
Flagstaff,AZ,6/24/2019,light,35.26331311,-111.529024
Fort Lauderdale,FL,6/25/2019,light,26.13691468,-80.21914076
Tybee Island,GA,6/25/2019,triangle,32.028,-80.9361
Greenville,WI,6/25/2019,circle,44.3015,-88.5467
Boaz,AL,7/20/2019,light,34.17928913,-86.18376304
Bozeman,MT,7/20/2019,other,45.70981012,-111.0535749
Centreville,VA,7/20/2019,circle,38.8439,-77.46703166
Ashland,OR,7/20/2019,light,42.1563,-122.5298
Johnstown,PA,7/21/2019,unknown,40.31809857,-78.90465429
Logansport,IN,7/21/2019,flash,40.7924,-86.3798
Sherman Oaks,CA,7/21/2019,changing,34.14653158,-118.4467077
Moberly,MO,7/21/2019,triangle,39.4037,-92.4088
Camarillo,CA,7/21/2019,disk,34.21955353,-119.0331022
Prudenville,MI,7/5/2019,formation,44.2475,-84.6427
Southold,NY,7/5/2019,light,41.0639,-72.429
San jacinto,CA,7/6/2019,sphere,33.80390899,-116.9652876
Otis Orchards,WA,7/6/2019,light,47.7236,-117.1706
Dallastown,PA,7/6/2019,light,39.8844,-76.6541
Las Vegas,NV,7/6/2019,circle,36.14124586,-115.1865919
Springfield,NJ,7/6/2019,rectangle,40.6987,-74.3296
Mount Prospect,IL,7/6/2019,circle,42.0624,-87.9309
Saint John,NB,5/25/2019,light,45.26740436,-66.05407664
Las Vegas,NV,5/25/2019,light,36.14124586,-115.1865919
New York,NY,5/25/2019,chevron,40.74430707,-73.98772448
Queen Creek,AZ,5/25/2019,cigar,33.24702,-111.6332933
Quartzsite,AZ,5/25/2019,other,33.6639,-114.23
Oakwood,GA,5/25/2019,light,34.2345,-83.8943
Palm Coast,FL,5/25/2019,disk,29.540925,-81.20838512
Denver,CO,5/25/2019,light,39.74512637,-104.9593459
Cochiti Lake,NM,5/15/2019,unknown,35.6485,-106.3398
St Louis,MO,5/22/2019,light,38.62382493,-90.3085277
Kahului,HI,5/24/2019,unknown,20.88045135,-156.4690459
Los Angeles,CA,5/31/2019,sphere,34.05070709,-118.2799351
Blythe,CA,6/1/2019,circle,33.7567,-114.5124
Abilene,TX,6/26/2019,changing,32.39435138,-99.790044
Freeport,NY,6/26/2019,cigar,40.6489,-73.5825
Anderson,SC,6/26/2019,formation,34.49168812,-82.64779851
Terryville,CT,6/27/2019,sphere,41.6642,-73.0195
Gold Canyon,AZ,6/27/2019,unknown,33.3715,-111.4369
Wildomar,CA,6/27/2019,light,33.6238,-117.2569
Dayton,OH,6/27/2019,light,39.73540852,-84.16762781
Marietta,GA,6/27/2019,triangle,33.96188746,-84.5102132
Jenks,OK,7/21/2019,rectangle,36.0027,-95.9775
Bristol,CT,7/21/2019,light,41.68150531,-72.94058502
Sultan,WA,7/21/2019,disk,47.8559,-121.7397
Donalsonville,GA,7/22/2019,light,30.9591,-84.8898
Canterbury,CT,7/22/2019,cylinder,41.6972,-71.9882
Seattle,WA,7/22/2019,sphere,47.60904639,-122.3260283
Nevada,MO,7/22/2019,unknown,37.8313,-94.3387
Louisville,KY,7/22/2019,egg,38.21121447,-85.68918456
Harwich,MA,1/16/2019,unknown,41.7029,-70.0621
Clearfield,UT,5/11/2019,light,41.11413723,-112.0567766
Orlando,FL,5/23/2019,other,28.5192467,-81.35409598
Los Angeles,CA,5/24/2019,sphere,34.05070709,-118.2799351
New Holland,PA,5/25/2019,egg,40.1086,-76.0707
Mission,BC,5/29/2019,disk,49.15590811,-122.3108595
Cicero,IL,5/30/2019,circle,41.8406,-87.7588
Westminster,CA,7/6/2019,triangle,33.7474,-117.9939
Newark,NY,7/6/2019,sphere,43.0719,-77.0976
San Clemente,CA,7/6/2019,light,33.45240084,-117.6169089
Maryville,IL,7/6/2019,circle,38.7252,-89.9671
Canal Point,FL,7/6/2019,other,26.9,-80.6096
New Castle,IN,7/7/2019,light,39.9341,-85.3718
Anderson,CA,7/7/2019,circle,40.4458,-122.3548
Springfield,MO,7/7/2019,fireball,37.19880654,-93.30922289
New Fairfield,CT,7/7/2019,cylinder,41.4665,-73.4857
Quincy,MA,7/7/2019,other,42.24558955,-71.01388909
Tazewell,TN,5/25/2019,light,36.4759,-83.4984
Westcliffe,CO,5/25/2019,other,38.0774,-105.4599
Telluride,CO,5/25/2019,other,37.9963,-107.8805
Belfair,WA,5/25/2019,formation,47.4341,-122.9259
Escalante,UT,5/25/2019,light,37.7778,-111.6059
New Ulm,MN,5/25/2019,egg,44.3041,-94.4356
Tecumseh,MI,5/25/2019,unknown,42.0115,-83.9169
Sunbury,OH,5/25/2019,other,40.2667,-82.8477
Urbana,OH,5/25/2019,other,40.1183,-83.7834
West Springfield,MA,6/3/2019,other,42.107,-72.6204
Patagonia,AZ,6/3/2019,light,31.5323,-110.7113
Zimmerman,MN,6/27/2019,unknown,45.4508,-93.5855
Louisville,KY,6/28/2019,disk,38.21121447,-85.68918456
Mercer Island,WA,6/28/2019,light,47.5602,-122.2281
Chicago,IL,6/28/2019,light,41.87991242,-87.66801796
Cary,NC,6/28/2019,formation,35.78376198,-78.8013349
Mammoth Lakes,CA,6/28/2019,chevron,37.587,-118.8422
Yachats,OR,6/28/2019,fireball,44.326,-124.0032
Royal Oak,MI,7/22/2019,unknown,42.5044431,-83.15211034
Lodge Grass,MT,7/23/2019,circle,45.2213,-107.4247
Willingboro,NJ,7/23/2019,flash,40.0257,-74.8916
Rock Hill,SC,7/23/2019,circle,34.94510533,-81.05418339
Grand Terrace,CA,7/23/2019,fireball,34.0339,-117.3136
Marietta,GA,7/23/2019,light,33.96188746,-84.5102132
Spokane,WA,7/23/2019,unknown,47.68357629,-117.3863311
Alden,NY,7/23/2019,circle,42.9038,-78.5008
Fulton,MS,6/4/2019,cigar,34.2758,-88.3223
Lincoln,NE,6/7/2019,diamond,40.80091454,-96.67416753
Anderson,CA,6/10/2019,circle,40.4458,-122.3548
Leander,TX,6/12/2019,cylinder,30.52414505,-97.92676216
Astoria,NY,6/15/2019,oval,40.76716222,-73.91944063
Madison,AL,6/15/2019,rectangle,34.71265882,-86.75229706
Forks,WA,6/15/2019,sphere,47.7948,-124.2643
Evansville,IN,7/7/2019,flash,37.98475253,-87.51397042
Manchester,CT,7/7/2019,light,41.77653827,-72.52271852
Bathurst,NB,7/7/2019,unknown,47.6181,-65.6511
Billings,MT,7/8/2019,circle,45.75458535,-108.5015771
Kiln,MS,7/8/2019,light,30.4481,-89.4437
Las Vegas,NV,7/8/2019,fireball,36.14124586,-115.1865919
Asbury Park,NJ,7/8/2019,triangle,40.24237688,-74.03824372
West Babylon,NY,7/8/2019,circle,40.70668992,-73.35013256
Fairburn,GA,7/8/2019,light,33.5879,-84.6467
Harriman,TN,7/8/2019,unknown,35.977,-84.4625
Durango,CO,7/8/2019,circle,37.42148,-107.8529183
Huntsville,AL,7/8/2019,light,34.72796777,-86.6278388
Uniontown,OH,5/25/2019,formation,40.9611,-81.4326
Richmond,IN,5/25/2019,light,39.8380098,-84.90525098
Myrtle Beach,SC,5/25/2019,circle,33.68315,-78.9395391
Conneaut,OH,5/25/2019,other,41.8909,-80.6164
The Dalles,OR,5/25/2019,formation,45.5447,-121.1543
Forks,WA,5/25/2019,cylinder,47.7948,-124.2643
Madison,OH,5/25/2019,other,41.7932,-81.0578
Marysville,OH,5/25/2019,circle,40.25381667,-83.36848542
Sisseton,SD,5/25/2019,light,45.671,-97.0715
Oakville,ON,5/25/2019,triangle,43.46031846,-79.71625895
Detroit lakes,MN,5/25/2019,light,46.82387742,-95.84800968
Hulett,WY,5/26/2019,light,44.7444,-104.6804
Miami,FL,6/5/2019,disk,25.77414271,-80.2895185
Wernersville,PA,6/6/2019,unknown,40.3301,-76.0805
Milwaukee,WI,6/6/2019,other,43.05174403,-87.95998544
Appleton,NY,6/6/2019,triangle,43.3113,-78.6343
Carlsbad,CA,6/6/2019,disk,33.12780665,-117.3035271
Tracy,CA,6/6/2019,sphere,37.705,-121.4577154
Kennard,TX,6/6/2019,other,31.3596,-95.1833
Gilbert,AZ,6/6/2019,circle,33.3396009,-111.781265
Colorado Springs,CO,6/28/2019,circle,38.8614783,-104.7803978
Pittsburgh,PA,6/28/2019,disk,40.44309195,-79.97424169
Lebanon,OH,6/28/2019,cylinder,39.4543,-84.2258
Kingsley,MI,6/28/2019,circle,44.5483,-85.5349
Manhattan,KS,6/28/2019,circle,39.12717533,-96.55163067
greensboro,NC,6/28/2019,light,36.07696303,-79.81581388
Los Angeles,CA,6/29/2019,unknown,34.05070709,-118.2799351
Stevensville,MT,6/29/2019,light,46.5099,-114.0932
Carson,CA,7/24/2019,sphere,33.83698671,-118.2595559
Pueblo,CO,7/24/2019,light,38.27602697,-104.6634627
Atlanta,GA,7/24/2019,other,33.80870552,-84.38988232
Champlin,MN,7/24/2019,unknown,45.1889,-93.3975
Middletown,RI,7/24/2019,flash,41.5171,-71.2789
Rocky Point,NY,7/24/2019,light,40.9363,-72.933
West Haven,CT,7/24/2019,flash,41.273,-72.9574
Phoenix,AZ,6/16/2019,flash,33.53538055,-112.04946
Minneapolis,MN,6/16/2019,other,44.98078334,-93.29330788
Fairfax,VA,6/16/2019,light,38.84920832,-77.31409307
Hamilton,ON,6/17/2019,unknown,43.2377607,-79.86514418
Stevensville,MT,6/17/2019,light,46.5099,-114.0932
Fishers,IN,6/18/2019,sphere,39.9583,-85.9988
Oakley,CA,6/18/2019,light,37.9942,-121.6887
Clay,NY,6/19/2019,disk,43.1843,-76.2001
Phoenix,AZ,6/19/2019,unknown,33.53538055,-112.04946
Farmingdale,ME,7/8/2019,formation,44.2618,-69.8232
Marion,OH,7/8/2019,rectangle,40.5982,-83.1425
Murfreesboro,TN,7/9/2019,light,35.86454843,-86.4034119
Louisa,VA,7/9/2019,light,37.9871,-78.0584
Calabasas,CA,7/9/2019,circle,34.11886555,-118.6733034
Safford,AZ,7/9/2019,fireball,32.70880769,-109.6577923
Rockland,ME,7/9/2019,light,44.1272,-69.1336
Union City,TN,7/9/2019,flash,36.4146,-89.1396
New Britain,CT,7/9/2019,light,41.67601577,-72.78116171
Walpole,MA,7/9/2019,sphere,42.1512,-71.2569
Ocean Shores,WA,5/26/2019,light,46.972,-124.1432
East Troy,WI,5/26/2019,disk,42.7945,-88.3994
Owensboro,KY,5/26/2019,changing,37.76107062,-87.15569742
Bonnyville,AB,5/26/2019,light,54.2668,-110.7351
West Des Moines,IA,5/26/2019,fireball,41.56389414,-93.77826066
Cross plains,WI,5/26/2019,other,43.124,-89.6378
Crane Lake,MN,5/26/2019,other,48.2859,-92.6286
New Bloomfield,MO,6/6/2019,unknown,38.7208,-92.0875
Clovis,CA,6/7/2019,light,36.86390064,-119.6521357
Port Angeles,WA,6/7/2019,other,48.00258533,-123.397896
Indian Orchard,MA,6/7/2019,sphere,42.151,-72.5124
Manitowoc,WI,6/7/2019,circle,44.1099,-87.71
Ruidoso,NM,6/7/2019,circle,33.349275,-105.641175
Ware,MA,6/29/2019,diamond,42.2991,-72.2757
Richmond,VA,6/29/2019,flash,37.55860754,-77.50798002
Ashby,MA,6/29/2019,other,42.6726,-71.8356
Nanaimo,BC,6/29/2019,sphere,49.18105398,-123.9967366
Roseville,CA,6/29/2019,disk,38.76717396,-121.3107662
New Haven,MO,6/30/2019,light,38.5572,-91.2605
Yale,MI,6/30/2019,other,43.137,-82.8181
Leominster,MA,7/24/2019,sphere,42.5244,-71.7657
Bayside,NY,7/24/2019,cylinder,40.76963521,-73.77474296
Manchester,CT,7/24/2019,flash,41.77653827,-72.52271852
Arlington,WA,7/24/2019,light,48.1853,-121.6778
ipswich,MA,7/24/2019,triangle,42.6825,-70.847
Gastonia,NC,7/24/2019,light,35.23324978,-81.17918458
Regina,SK,7/25/2019,light,50.44846995,-104.6178337
Renton,WA,7/25/2019,light,47.47784172,-122.157589
Kittitas,WA,7/25/2019,diamond,46.9832,-120.417
Carrollton,IL,6/19/2019,sphere,39.2911,-90.4301
Orlando,FL,6/20/2019,light,28.5192467,-81.35409598
Salt Lake City,UT,6/20/2019,oval,40.70446486,-111.8821388
Liberty,MO,6/20/2019,circle,39.26910833,-94.38921905
Kansas City,MO,6/20/2019,sphere,39.10083514,-94.56447929
Kansas City,MO,6/20/2019,unknown,39.10083514,-94.56447929
Kansas City,MO,6/20/2019,circle,39.10083514,-94.56447929
Nashua,NH,7/9/2019,fireball,42.74402106,-71.48120613
The Colony,TX,7/10/2019,oval,33.0735,-96.9032
Columbus,OH,7/10/2019,unknown,40.00341687,-82.99822087
Grande Prairie,AB,7/10/2019,unknown,55.17051508,-118.8515421
Syracuse,NY,7/10/2019,fireball,43.05037092,-76.1570637
Irvine,CA,7/10/2019,cigar,33.68653501,-117.7924048
Colorado Springs,CO,7/10/2019,circle,38.8614783,-104.7803978
Santa Maria,CA,7/10/2019,sphere,34.86801343,-120.3557112
Monterey Park,CA,7/10/2019,light,34.05294286,-118.1341095
Arvada,CO,7/10/2019,light,39.82714549,-105.110184
Chesnee,SC,7/10/2019,sphere,35.1121,-81.9154
Duluth,GA,7/10/2019,cylinder,33.99903629,-84.15485316
Xenia,OH,5/26/2019,other,39.678,-83.9027
Fort Mill,SC,5/26/2019,flash,35.02344974,-80.93442021
Minneapolis,MN,5/26/2019,unknown,44.98078334,-93.29330788
Quincy,MA,5/26/2019,sphere,42.24558955,-71.01388909
Hershey,PA,5/26/2019,formation,40.2667,-76.6381
Sicklerville,NJ,5/26/2019,oval,39.7401,-74.9709
North Conway,NH,5/26/2019,cylinder,44.0354,-71.1348
Taos,NM,5/26/2019,light,36.4146,-105.5222
Los alamos,NM,5/26/2019,formation,35.84461111,-106.3089422
Lakewood,CO,5/26/2019,light,39.7047,-105.0814
Oshawa,ON,6/7/2019,sphere,43.92118698,-78.86515721
Rockford,IL,6/7/2019,circle,42.27738134,-89.04477791
Highland,IN,6/7/2019,unknown,41.548,-87.4564
Spencer,MA,6/8/2019,light,42.2473,-71.9903
Redding,CA,6/8/2019,unknown,40.61143942,-122.3518356
Manhattan,KS,6/8/2019,light,39.12717533,-96.55163067
Las Vegas,NV,6/8/2019,light,36.14124586,-115.1865919
Sterling Heights,MI,6/30/2019,oval,42.58055261,-83.03164308
Las Vegas,NV,6/30/2019,light,36.14124586,-115.1865919
Wimberley,TX,6/30/2019,cigar,30.0279,-98.1179
Garden City,ID,6/30/2019,formation,43.6461,-116.2675
Maidens,VA,6/30/2019,circle,37.7052,-77.82
Noble,OK,6/30/2019,other,35.1397,-97.2786
Kanab,UT,6/30/2019,triangle,37.2718,-112.2365
Middleboro,MA,6/30/2019,oval,41.88475432,-70.87260617
Warren,MI,7/1/2019,light,42.49430574,-83.02442081
Indianapolis,IN,7/1/2019,light,39.80764885,-86.14221403
San Clemente,CA,6/20/2019,oval,33.45240084,-117.6169089
Greer,SC,6/20/2019,oval,34.92141362,-82.21619812
Cleveland,TN,6/20/2019,sphere,35.16131194,-84.87355771
Lakewood,CO,6/20/2019,unknown,39.7047,-105.0814
Charlottesville,VA,6/20/2019,circle,38.04475956,-78.53657691
Lincoln Park,MI,6/21/2019,light,42.2462,-83.179
Suitland,MD,6/21/2019,triangle,38.83252443,-76.90851832
Lexington,NE,6/21/2019,cigar,40.8442,-99.7229
Glenview,IL,6/21/2019,light,42.02179794,-87.79151728
Madison,ME,6/21/2019,light,44.8351,-69.805
Des Moines,IA,7/10/2019,triangle,41.5997162,-93.61890937
Glenville,WV,7/11/2019,unknown,38.9292,-80.8689
Boise,ID,7/11/2019,circle,43.6144452,-116.244678
Pleasanton,CA,7/11/2019,light,37.66508758,-121.8957639
Lakeland,GA,7/11/2019,changing,31.12,-83.0462
Dayton,NV,7/11/2019,circle,39.2643,-119.4804
Bowling Green,KY,7/11/2019,other,37.03270773,-86.41964444
San Bernardino,CA,7/11/2019,triangle,34.15461809,-117.3040963
Cedar Creek,TX,7/11/2019,other,30.0942,-97.4918
Charlotte,NC,7/12/2019,other,35.20580084,-80.82639156
Castle Rock,CO,5/26/2019,changing,39.38157093,-104.8483757
Helen,GA,5/26/2019,light,34.7368,-83.7521
Rumford,ME,5/26/2019,circle,44.5513,-70.6366
Jay,ME,5/26/2019,formation,44.5317,-70.2164
Burnham,ME,5/26/2019,light,44.6929,-69.3846
Ventura,CA,5/26/2019,light,34.29657456,-119.2399163
Cedar Rapids,IA,5/26/2019,circle,41.97769491,-91.67586486
Colville,WA,5/26/2019,cylinder,48.6791,-117.7527
Elroy,WI,5/26/2019,light,43.7528,-90.2923
Campbell River,BC,5/26/2019,unknown,50.04174458,-125.5858301
Springdale,WA,5/26/2019,sphere,48.0248,-117.8549
Gulf Breeze,FL,6/8/2019,light,30.3843725,-87.016175
Alameda,CA,6/8/2019,cigar,37.76831959,-122.2740577
Sayre,PA,6/8/2019,rectangle,41.9642,-76.616
New Bedford,MA,6/8/2019,oval,41.65545068,-70.94210884
Tybee Island,GA,6/9/2019,disk,32.028,-80.9361
Lakewood,CO,7/1/2019,circle,39.7047,-105.0814
Dixon,IL,7/1/2019,cylinder,41.8157,-89.4818
Houston,TX,7/1/2019,sphere,29.7774937,-95.45122045
Gardner,IL,7/1/2019,cigar,41.1847,-88.3107
Marlton,NJ,7/1/2019,circle,39.8912,-74.9218
York Beach,ME,7/1/2019,light,43.1715,-70.6089
South Berwick,ME,7/1/2019,light,43.2418,-70.74
Bradenton,FL,7/1/2019,fireball,27.4609671,-82.5293294
Des Moines,IA,7/1/2019,fireball,41.5997162,-93.61890937
Beacon,NY,6/21/2019,circle,41.4885,-73.9434
Fayetteville,NC,6/21/2019,unknown,35.03683522,-78.92246248
Bradenton,FL,6/21/2019,light,27.4609671,-82.5293294
Long Valley,NJ,6/22/2019,unknown,40.7843,-74.806
Foresthill,CA,6/22/2019,unknown,39.0361,-120.8291
North Smithfield,RI,6/22/2019,sphere,41.9756,-71.5449
Las Vegas,NV,6/22/2019,changing,36.14124586,-115.1865919
Baltimore,MD,6/22/2019,triangle,39.31307269,-76.61182202
Tinley park,IL,6/22/2019,cylinder,41.57092727,-87.79419569
Omaha,IL,6/22/2019,oval,37.8638,-88.2604
Redding,CA,7/12/2019,cylinder,40.61143942,-122.3518356
Hayward,WI,5/26/2019,cigar,46.0143,-91.2901
Fish Creek,WI,5/26/2019,cigar,45.1148,-87.2168
Eatonville,WA,5/26/2019,circle,46.8673,-122.2665
Walworth,WI,5/26/2019,circle,42.5388,-88.6022
Sturgeon Bay,WI,5/26/2019,formation,44.7916,-87.467
Janesville,WI,5/26/2019,light,42.68318214,-89.04936429
Berlin,WI,5/26/2019,formation,44.0079,-88.9666
Baraboo,WI,5/26/2019,formation,43.4807,-89.7399
Hudson,WI,5/26/2019,light,44.9822,-92.6995
Shawano,WI,5/26/2019,formation,44.7677,-88.7169
Harshaw,WI,5/26/2019,formation,45.6683,-89.6822
Scottsdale,AZ,6/9/2019,light,33.56413757,-111.905083
Dublin,CA,6/9/2019,circle,37.7186,-121.9164
Gresham,OR,6/9/2019,rectangle,45.49032889,-122.4038911
Bridgewater,NJ,6/9/2019,sphere,40.5953,-74.6173
Miles City,MT,6/9/2019,oval,46.2222,-105.605
Edison,NJ,6/9/2019,flash,40.52146102,-74.35711166
Lombard,IL,6/10/2019,rectangle,41.8732,-88.0002
Elfrida,AZ,6/10/2019,other,31.7355,-109.7095
Brandon,FL,6/10/2019,light,27.91174344,-82.30077872
Longboat Key,FL,7/2/2019,cylinder,27.3853,-82.6368
Winona,MN,7/2/2019,circle,43.9848,-91.6064
Athens,TN,7/2/2019,light,35.42525,-84.66273571
Littleton,CO,7/2/2019,changing,39.56792218,-105.0102302
Clearwater,FL,7/2/2019,other,27.96202318,-82.75161706
Morrisonville,NY,7/2/2019,egg,44.7398,-73.6086
Boise,ID,7/2/2019,cigar,43.6144452,-116.244678
Hudson,MA,7/2/2019,other,42.3897,-71.5401
Mebane,NC,7/2/2019,triangle,36.1399,-79.2665
Columbia,SC,7/2/2019,triangle,34.02910564,-80.99284039
Lebanon,PA,7/2/2019,cigar,40.32248981,-76.42962994
Sacramento,CA,7/2/2019,light,38.57580181,-121.4500996
Belen,NM,6/22/2019,unknown,34.5967,-106.672
Belen,NM,6/22/2019,changing,34.5967,-106.672
Dalton,GA,6/22/2019,light,34.7806506,-84.93673735
Thunder Bay,ON,6/22/2019,circle,48.39341446,-89.30345452
Pittsburgh,PA,6/22/2019,light,40.44309195,-79.97424169
Bristol,PA,6/22/2019,light,40.1172,-74.8495
Middleburg,FL,6/22/2019,sphere,30.0829551,-81.86297347
San Diego,CA,6/23/2019,light,32.78722908,-117.1402677
Brookhaven,PA,6/23/2019,light,39.8686,-75.3958
Pelican Lake,WI,5/26/2019,other,45.5102,-89.2359
Annville,KY,5/26/2019,light,37.3021,-83.9695
Kiel,WI,5/26/2019,cigar,43.9609,-87.9751
Elmhurst,IL,5/26/2019,formation,41.8917,-87.9359
ELMHURST,IL,5/26/2019,formation,41.8917,-87.9359
Owen,WI,5/26/2019,light,44.9586,-90.5539
Springville,NY,5/26/2019,sphere,42.5252,-78.6855
hamburg,MI,5/26/2019,cigar,42.4487,-83.8016
NEW HAMBURG,ON,5/26/2019,light,43.39624,-80.661
Prairie du Chien,WI,6/10/2019,flash,43.06,-91.0568
Thermal,CA,6/10/2019,rectangle,33.4854,-116.1044
Surprise,AZ,6/11/2019,cigar,33.63271553,-112.3725228
Hermosa Beach,CA,6/11/2019,sphere,33.8622,-118.3995
Ogden,UT,6/11/2019,cigar,41.22037658,-112.0058733
Victorville,CA,6/11/2019,cylinder,34.52017592,-117.3407393
Ackerman,MS,6/11/2019,changing,33.329,-89.2119
Kitchener,ON,6/11/2019,oval,43.43307998,-80.48001216
Blacklick,OH,6/11/2019,disk,40.0122,-82.8095
Punta Gorda,FL,6/11/2019,unknown,26.91562632,-81.99651729
Davie,FL,7/3/2019,cigar,26.0629,-80.2331
Boca Raton,FL,7/3/2019,fireball,26.36806183,-80.13787724
New Port Richey,FL,7/3/2019,fireball,28.24270049,-82.67723901
Huntingtown,MD,7/3/2019,light,38.6132,-76.5985
Roseville,CA,7/3/2019,disk,38.76717396,-121.3107662
Lancaster,SC,7/3/2019,rectangle,34.7571225,-80.6988425
Jersey City,NJ,7/3/2019,fireball,40.72497776,-74.0621522
Statesville,NC,6/23/2019,teardrop,35.77337228,-80.90376931
Las Vegas,NV,6/23/2019,circle,36.14124586,-115.1865919
Chalfont,PA,6/23/2019,cigar,40.2964,-75.2053
Frederick,MD,6/23/2019,circle,39.42507207,-77.39750165
Hamden,CT,6/23/2019,light,41.37946858,-72.9197433
Edisto Island,SC,6/24/2019,light,32.5579,-80.2192
Lake Hopatcong,NJ,6/24/2019,light,40.9677,-74.608
Gladwin,MI,5/26/2019,formation,44.0747,-84.4347
Danville,OH,5/26/2019,other,40.4678,-82.2554
Niverville,MB,5/27/2019,diamond,49.6056,-97.0423
Red Deer,AB,5/27/2019,light,52.25347643,-113.8090831
Magna,UT,5/27/2019,triangle,40.7053,-112.0848
Philipsburg,PA,5/27/2019,disk,40.8624,-78.1734
Henning,TN,5/27/2019,formation,35.6508,-89.6945
Burlington,VT,5/27/2019,light,44.47554792,-73.21075
Center Rutland,VT,6/11/2019,disk,43.5985,-73.0114
Port Saint Lucie,FL,6/12/2019,circle,27.2856863,-80.36344364
Lawton,OK,6/12/2019,oval,34.63522412,-98.47288176
Tulsa,OK,6/12/2019,unknown,36.10945588,-95.93524542
Socorro,NM,6/12/2019,circle,33.8974,-107.0261
Bena,MN,7/3/2019,other,47.3425,-94.209
Highland Lakes,NJ,7/3/2019,other,41.1773,-74.4688
Oak Harbor,OH,7/3/2019,unknown,41.5575,-83.151
Big Bear,CA,7/3/2019,light,34.2611,-116.845
Williamsburg,VA,7/3/2019,flash,37.3058109,-76.73795308
Sevierville,TN,7/3/2019,light,35.7915575,-83.54468333
Columbus,OH,7/3/2019,fireball,40.00341687,-82.99822087
Honolulu,HI,7/4/2019,fireball,21.32260015,-157.8401287
Ninilchik,AK,7/4/2019,changing,60.0756,-151.4262
Warren,OH,7/4/2019,light,41.23654444,-80.8044875
Marshall,MO,6/24/2019,changing,39.0866,-93.1495
Philadelphia,PA,6/24/2019,unknown,39.99063505,-75.14580121
Santa Fe,NM,6/24/2019,diamond,35.66108268,-105.9539071
Milwaukee,WI,6/24/2019,cylinder,43.05174403,-87.95998544
Alva,OK,6/24/2019,fireball,36.7747,-98.858
Ladson,SC,6/24/2019,disk,32.9831,-80.1223
Rankin,IL,6/24/2019,fireball,40.4323,-87.8915
Tacoma,WA,6/25/2019,triangle,47.21257224,-122.4597205
Jacksonville,FL,6/25/2019,teardrop,30.26690468,-81.61637283
Moab,UT,5/27/2019,formation,38.4506,-109.6027
Wausau,WI,5/27/2019,cigar,45.01047409,-89.62716788
Pembine,WI,5/27/2019,formation,45.5944,-87.9317
Colchester,VT,5/27/2019,teardrop,44.54866341,-73.15544146
Sandown,NH,5/27/2019,light,42.9314,-71.1851
Clifton Forge,VA,5/28/2019,light,37.8194,-79.7398
Phoenix,AZ,5/28/2019,fireball,33.53538055,-112.04946
Madbury,NH,5/28/2019,circle,43.1692,-70.924
Camp Verde,AZ,5/28/2019,chevron,34.4862,-111.7808
Waterford,VA,6/12/2019,fireball,39.1885,-77.6256
Sumrall,MS,6/13/2019,light,31.3798,-89.5862
Scotts Mills,OR,6/13/2019,sphere,45.0429,-122.6684
Schaumburg,IL,6/13/2019,circle,42.05010904,-88.09256772
Jordan,MN,6/13/2019,formation,44.6586,-93.5975
Dunbar,WV,6/13/2019,circle,38.376,-81.7477
Spokane,WA,6/13/2019,other,47.68357629,-117.3863311
Gadsden,AL,7/4/2019,triangle,34.02136218,-85.92212244
New Brunswick,NJ,7/4/2019,unknown,40.48366241,-74.44371729
Chesapeake,VA,7/4/2019,unknown,36.7520477,-76.28183086
North Arlington,NJ,7/4/2019,oval,40.7876,-74.1224
Scottsdale,AZ,7/4/2019,circle,33.56413757,-111.905083
Provincetown,MA,7/4/2019,flash,42.0511,-70.196
Beaumont,TX,7/4/2019,other,30.06883727,-94.17593579
Imperial Beach,CA,7/4/2019,teardrop,32.5724,-117.1132
Dammeron Valley,UT,6/25/2019,light,37.2629,-113.6962
Lakeland,FL,6/25/2019,unknown,28.04722715,-81.95884978
Savannah,GA,6/25/2019,sphere,32.02970094,-81.13525336
Albuquerque,NM,6/26/2019,fireball,35.10348122,-106.6124752
Lake City,FL,6/26/2019,light,30.14528462,-82.63721731
American Falls,ID,6/26/2019,circle,42.7275,-112.9902
Fertile,MN,5/28/2019,triangle,47.5791,-96.2596
Carson City,NV,5/29/2019,triangle,39.16921421,-119.7517695
Irvine,KY,5/29/2019,unknown,37.66,-83.9671
Pigeon Forge,TN,5/29/2019,diamond,35.78020909,-83.56898182
Colorado Springs,CO,5/29/2019,changing,38.8614783,-104.7803978
Chicago,IL,5/29/2019,disk,41.87991242,-87.66801796
Carmichael,CA,5/29/2019,triangle,38.62606812,-121.3248507
Larue,TX,6/13/2019,rectangle,32.1379,-95.6545
Gadsden,AL,6/13/2019,light,34.02136218,-85.92212244
Tulsa,OK,6/13/2019,light,36.10945588,-95.93524542
Atlanta,GA,6/13/2019,cigar,33.80870552,-84.38988232
Catonsville,MD,6/13/2019,triangle,39.2694,-76.7447
York,PA,6/13/2019,diamond,39.96327543,-76.71886879
Palmer,AK,6/14/2019,oval,61.6092,-148.4657
Taylorsville,UT,6/14/2019,triangle,40.6677,-111.9388
Salem,VA,6/14/2019,light,37.29064854,-80.09859126
Indianapolis,IN,6/14/2019,light,39.80764885,-86.14221403
Maitland,FL,6/14/2019,cigar,28.62938584,-81.36191062
Palm Coast,FL,7/4/2019,light,29.540925,-81.20838512
Peabody,MA,7/4/2019,oval,42.5324,-70.9736
Williston,VT,7/4/2019,light,44.4235,-73.0854
Harlan,KY,7/4/2019,circle,36.77627222,-83.34108889
Laurel,MT,7/4/2019,light,45.6032,-108.6841
Cecil,PA,7/4/2019,sphere,40.3193,-80.1898
Clinton,CT,7/4/2019,light,41.2988,-72.5363
Massapequa Park,NY,7/4/2019,light,40.6789,-73.4474
Fayetteville,AR,7/4/2019,chevron,36.04787185,-94.04453778
Ridge,NY,7/4/2019,fireball,40.8992,-72.8832
Wadsworth,OH,6/27/2019,unknown,41.0621,-81.7451
Nesquehoning,PA,5/30/2019,disk,40.8794,-75.8118
Waianae,HI,5/30/2019,sphere,21.457,-158.173
Fort Lauderdale,FL,5/30/2019,changing,26.13691468,-80.21914076
East Weymouth,MA,5/30/2019,formation,42.2093,-70.9326
South Jordan,UT,5/30/2019,flash,40.55990645,-111.9648677
Portsmouth,VA,5/30/2019,circle,36.83548986,-76.35074424
Butler,TN,5/30/2019,circle,36.3243,-81.931
Martinsburg,WV,6/14/2019,light,39.45820441,-77.96052115
Stow,OH,6/14/2019,other,41.1741,-81.4389
Sherman Oaks,CA,6/14/2019,unknown,34.14653158,-118.4467077
Placerville,CA,6/15/2019,circle,38.7365,-120.8043
Delta,UT,6/15/2019,formation,39.2902,-112.5656
Midvale,UT,6/15/2019,triangle,40.6092,-111.8819
Baldwin Park,CA,6/15/2019,circle,34.0853,-117.9609
Weyers Cave,VA,6/15/2019,other,38.2927,-78.9349
Lansing,IL,7/4/2019,flash,41.5674,-87.5601
Kent,WA,7/4/2019,fireball,47.38164505,-122.1967851
Jacksonville,AR,7/4/2019,oval,34.9184,-92.1362
Washougal,WA,7/4/2019,light,45.6173,-122.236
Manchester,KY,7/4/2019,unknown,37.141,-83.7372
Fargo,ND,7/4/2019,unknown,46.85898941,-96.84602145
Kent,WA,7/5/2019,fireball,47.38164505,-122.1967851
Boulder,CO,7/5/2019,fireball,40.0244036,-105.2687395
Hilton,NY,5/30/2019,light,43.2891,-77.8278
Sanger,TX,5/31/2019,light,33.3538,-97.1965
Seattle,WA,5/31/2019,light,47.60904639,-122.3260283
San Clemente,CA,5/31/2019,cigar,33.45240084,-117.6169089
Nesquehoning,PA,5/31/2019,oval,40.8794,-75.8118
Wilkes-Barre,PA,5/31/2019,egg,41.2326071,-75.82914754
Kenner,LA,5/31/2019,triangle,30.01750268,-90.25106429
Kailua,HI,5/31/2019,triangle,21.4024,-157.7405
Mesa,AZ,5/31/2019,circle,33.42126454,-111.7727973
Pittsburgh,PA,5/31/2019,oval,40.44309195,-79.97424169
Milton,FL,5/31/2019,triangle,30.69733672,-87.05111638
Boonville,IN,6/1/2019,light,38.0519,-87.2485
Charles Town,WV,6/15/2019,fireball,39.2581,-77.8705
Saint Paul,MN,6/15/2019,egg,44.95305527,-93.11475467
Lakewood,NJ,6/15/2019,light,40.0721,-74.2069
Hayti,SD,6/15/2019,cigar,44.7027,-97.2291
Clifton Forge,VA,6/16/2019,changing,37.8194,-79.7398
Chesapeake,VA,6/17/2019,light,36.7520477,-76.28183086
Bridgewater,NJ,7/5/2019,changing,40.5953,-74.6173
Henderson,NV,6/1/2019,flash,36.02665076,-115.0438399
Peshtigo,WI,6/1/2019,circle,45.0534,-87.801
Asher,OK,6/17/2019,circle,35.0141,-96.9101
Naples,FL,6/17/2019,light,26.19318197,-81.73703022
Everett,WA,6/17/2019,cylinder,47.92466491,-122.2193999
South San Francisco,CA,6/17/2019,circle,37.65350354,-122.4218735
Dexter,OR,6/17/2019,light,43.88,-122.8176
Durand,MI,6/17/2019,other,42.8949,-84.0092
Marathon,FL,6/17/2019,fireball,24.7163,-81.0767
Saint George,UT,6/17/2019,cylinder,37.13106124,-113.5887632
Casper,WY,6/17/2019,triangle,42.95549592,-106.3505194
Las Vegas,NV,6/1/2019,formation,36.14124586,-115.1865919
Mora,MN,6/1/2019,fireball,45.927,-93.3504
Venice,FL,6/1/2019,light,27.065819,-82.39104
Lothian,MD,6/1/2019,triangle,38.8011,-76.6469
Billings,MT,6/1/2019,disk,45.75458535,-108.5015771
Sacramento,CA,6/18/2019,flash,38.57580181,-121.4500996
Savannah,GA,6/18/2019,flash,32.02970094,-81.13525336
London,OH,6/18/2019,circle,39.8979,-83.3866
Middletown,OH,6/18/2019,circle,39.47070415,-84.42877513
Fairborn,OH,6/18/2019,circle,39.827,-84.0187
Hagerstown,IN,6/18/2019,changing,39.9251,-85.1677
Dayton,OH,6/18/2019,oval,39.73540852,-84.16762781
Germantown,OH,6/18/2019,circle,39.6389,-84.405
New Castle,IN,6/18/2019,circle,39.9341,-85.3718
Troy,OH,6/18/2019,light,40.03583043,-84.17787899
Tahlequah,OK,6/1/2019,light,35.957344,-94.962552
Little Rock,AR,6/2/2019,triangle,34.73753628,-92.36319236
Sudbury,MA,6/2/2019,sphere,42.3888,-71.4225
Greeley,CO,6/2/2019,other,40.42028899,-104.7519961
Loves Park,IL,6/2/2019,other,42.32934054,-89.00108649
Sicklerville,NJ,6/18/2019,oval,39.7401,-74.9709
Ruidoso,NM,6/18/2019,formation,33.349275,-105.641175
Skokie,IL,6/18/2019,flash,42.03644222,-87.74502311
Heppner,OR,6/19/2019,cigar,45.3127,-119.5795
Carlinville,IL,6/19/2019,sphere,39.284,-89.8698
Orlando,FL,6/19/2019,oval,28.5192467,-81.35409598
Smithville,MO,6/19/2019,light,39.394,-94.5743
Boca Raton,FL,6/2/2019,light,26.36806183,-80.13787724
Jackson,CA,6/2/2019,sphere,38.3518,-120.7747
Trenton,IL,6/2/2019,light,38.6182,-89.7065
Lively,ON,6/2/2019,changing,46.4431,-81.127
Rockmart,GA,6/2/2019,light,33.9762,-85.0527
Walworth,NY,6/2/2019,unknown,43.1433,-77.2879
Middleboro,MA,6/3/2019,formation,41.88475432,-70.87260617
Burlington,KY,6/3/2019,fireball,38.9941,-84.7741
Redding,CA,6/20/2019,triangle,40.61143942,-122.3518356
Monroe,OR,6/3/2019,flash,44.3462,-123.3374
Pilot Mountain,NC,6/3/2019,circle,36.4151,-80.4773
Fort Myers,FL,6/4/2019,fireball,26.58139709,-81.84065303
Millersville,PA,6/4/2019,teardrop,39.9811,-76.3784
Bristow,VA,6/4/2019,other,38.7405,-77.5621
Barrington,IL,6/4/2019,cylinder,42.1584,-88.1592
Lincoln,NE,6/4/2019,light,40.80091454,-96.67416753
Williston,FL,6/5/2019,triangle,29.3992,-82.4455
Leavenworth,KS,6/5/2019,light,39.30139403,-94.97446119
San Jose,CA,6/5/2019,disk,37.33884202,-121.8897057
Houghton,MI,6/5/2019,other,47.1544,-88.6471
Gillette,WY,6/5/2019,other,44.34486316,-105.62221
West Hills,CA,6/5/2019,light,34.20296429,-118.6887571
Artesia,NM,6/5/2019,light,32.7484,-104.4359
New Brunswick,NJ,6/5/2019,light,40.48366241,-74.44371729
Roseville,MN,6/6/2019,light,45.0061,-93.1566
Calgary,AB,1/1/2019,egg,51.04237871,-114.0574425
Austin,TX,1/4/2019,circle,30.30846944,-97.76011171
San Diego,CA,2/9/2019,circle,32.78722908,-117.1402677
Old Town,FL,2/12/2019,other,29.5688,-82.9886
Navasota,TX,2/15/2019,other,30.3706,-96.0565
Portsmouth,VA,3/12/2019,egg,36.83548986,-76.35074424
Chicago,IL,4/2/2019,circle,41.87991242,-87.66801796
Minneapolis,MN,4/7/2019,light,44.98078334,-93.29330788
Sylvan Lake,AB,4/8/2019,light,52.3168,-114.0853
Lansing,MI,4/9/2019,unknown,42.7438001,-84.57670843
Salinas,CA,4/11/2019,cigar,36.68852458,-121.6284548
Centerville,GA,4/13/2019,light,32.6365,-83.6649
Orlando,FL,4/15/2019,rectangle,28.5192467,-81.35409598
Stroudsburg,PA,4/15/2019,other,40.9588,-75.3006
Orlando,FL,4/15/2019,fireball,28.5192467,-81.35409598
Bakersfield,CA,4/15/2019,formation,35.34399793,-119.0408926
Kingwood,TX,4/16/2019,fireball,30.0336,-95.261
Sparland,IL,4/17/2019,triangle,41.0316,-89.5072
Queen Creek,AZ,4/17/2019,sphere,33.24702,-111.6332933
Tucson,AZ,4/17/2019,light,32.25994076,-110.9275423
North Myrtle Beach,SC,4/17/2019,unknown,33.83166,-78.65013
Wesley Chapel,FL,4/17/2019,disk,28.2397,-82.3279
Greensboro,NC,4/18/2019,unknown,36.07696303,-79.81581388
Virginia Beach,VA,4/18/2019,disk,36.83730134,-76.06194815
Minot,ND,4/18/2019,unknown,48.18889432,-101.3348903
Saint Francis,MN,4/19/2019,light,45.4243,-93.4292
Joplin,MO,4/19/2019,sphere,37.07995252,-94.49683957
Eureka,CA,4/19/2019,sphere,40.76192393,-124.1355706
Jamaica,NY,4/19/2019,circle,40.69090623,-73.79636733
Oklahoma City,OK,4/19/2019,oval,35.47186178,-97.5263035
Whittier,CA,4/19/2019,light,33.96301606,-118.0281332
Sherman Oaks,CA,4/20/2019,fireball,34.14653158,-118.4467077
Weed,CA,4/20/2019,cigar,41.5109,-122.3648
Plymouth,WI,4/20/2019,changing,43.7685,-88.0161
Waco,TX,4/20/2019,triangle,31.57359751,-97.1358486
Bismarck,ND,4/20/2019,changing,46.81675345,-100.7088
Independence,MO,4/20/2019,fireball,39.07880845,-94.38608575
Valparaiso,IN,4/20/2019,light,41.46761748,-87.03158252
Jacksonville,FL,4/20/2019,light,30.26690468,-81.61637283
Troutman,NC,4/20/2019,formation,35.6822,-80.8663
Las Vegas,NV,4/20/2019,unknown,36.14124586,-115.1865919
Montgomery,MN,4/20/2019,triangle,44.4281,-93.5622
Nottingham,MD,4/20/2019,unknown,39.3892,-76.492
Morris,MN,4/20/2019,triangle,45.586,-95.9544
Milford,UT,4/21/2019,circle,38.3624,-113.1098
Sparland,IL,4/21/2019,fireball,41.0316,-89.5072
Carolina Beach,NC,4/21/2019,circle,34.0376,-77.8991
Dauphin Island,AL,4/21/2019,other,30.247,-88.1939
Strathroy,ON,4/21/2019,triangle,42.9551,-81.6223
North Wilkesboro,NC,4/21/2019,light,36.1585,-81.1476
Lexington,NC,4/21/2019,egg,35.79657605,-80.25426766
Battle Creek,MI,4/21/2019,flash,42.3278928,-85.18855947
Whitecourt,AB,4/22/2019,triangle,54.1501,-115.6855
Van Nuys,CA,4/22/2019,fireball,34.18714852,-118.4612623
St. Petersburg,FL,4/22/2019,flash,27.79451493,-82.67515963
Akron,OH,4/22/2019,cigar,41.09643776,-81.55790462
Nappanee,IN,4/22/2019,cigar,41.4419,-85.9923
Strongsville,OH,4/22/2019,sphere,41.31313061,-81.82501224
Indian Lake Estates,FL,4/23/2019,oval,27.8139,-81.3784
Thompson's Station,TN,4/23/2019,disk,35.8172,-86.9395
Chesapeake,VA,4/23/2019,circle,36.7520477,-76.28183086
Eagle Mountain,UT,4/23/2019,circle,40.3141,-112.0069
Mesa,AZ,4/23/2019,sphere,33.42126454,-111.7727973
Fullerton,CA,4/23/2019,other,33.87742159,-117.9249784
Punta Gorda,FL,4/23/2019,triangle,26.91562632,-81.99651729
New York,NY,4/23/2019,light,40.74430707,-73.98772448
Lafayette,CA,4/24/2019,light,37.9021,-122.1157
Naugatuck,CT,4/24/2019,oval,41.4878,-73.0627
Janesville,WI,4/24/2019,sphere,42.68318214,-89.04936429
Long Beach,MS,4/24/2019,light,30.3749,-89.1785
Palm Desert,CA,4/24/2019,chevron,33.73731449,-116.3779536
Harrisonburg,VA,4/24/2019,triangle,38.4308042,-78.88316107
Toronto,ON,4/25/2019,sphere,43.67588634,-79.41418835
Lincoln,NH,4/25/2019,sphere,44.0797,-71.6326
Indianola,IA,1/21/2019,flash,41.3068,-93.5826
Kansas City,MO,2/14/2019,chevron,39.10083514,-94.56447929
Santa Monica,CA,3/17/2019,disk,34.02342753,-118.4816765
Glen Rock,NJ,3/30/2019,triangle,40.9604,-74.123
Huntsville,AL,4/4/2019,circle,34.72796777,-86.6278388
Macon,GA,4/4/2019,diamond,32.84971679,-83.6746703
California City,CA,4/7/2019,flash,35.14950556,-117.9250778
Middletown,OH,4/16/2019,oval,39.47070415,-84.42877513
Galesburg,IL,4/16/2019,fireball,40.9421,-90.378
Twin Falls,ID,4/16/2019,disk,42.43310923,-114.5794446
Olympia,WA,4/20/2019,cigar,47.03031595,-122.896931
Keremeos,BC,4/20/2019,sphere,49.2,-119.8167
Black River Falls,WI,4/20/2019,circle,44.2761,-90.7962
Tucson,AZ,4/24/2019,light,32.25994076,-110.9275423
Winnipeg,MB,4/25/2019,light,49.89126004,-97.15285022
Salt Lake City,UT,4/25/2019,other,40.70446486,-111.8821388
Mount Shasta,CA,4/25/2019,light,41.3181,-122.3202
Fairacres,NM,4/25/2019,light,32.304,-106.8467
Port Orange,FL,4/25/2019,fireball,29.11762222,-81.00494074
St Louis,MO,4/25/2019,flash,38.62382493,-90.3085277
Cloquet,MN,4/25/2019,light,46.744,-92.5739
Boise,ID,4/26/2019,formation,43.6144452,-116.244678
Tempe,AZ,4/26/2019,egg,33.41403567,-111.9209196
West Palm Beach,FL,4/26/2019,light,26.70504529,-80.1351401
Oak Lawn,IL,4/26/2019,circle,41.7091,-87.7596
Orange Beach,AL,4/26/2019,sphere,30.2802,-87.5918
Englewood,CO,4/26/2019,unknown,39.61587983,-104.8851873
Clarkesville,GA,4/26/2019,circle,34.7251,-83.5108
Staten Island,NY,4/26/2019,changing,40.57773258,-74.14641801
Nanaimo,BC,4/26/2019,fireball,49.18105398,-123.9967366
Saint Joseph,MN,4/27/2019,fireball,45.6163,-94.2945
Bullhead City,AZ,4/27/2019,unknown,35.08407849,-114.5628231
Littleton,CO,4/27/2019,light,39.56792218,-105.0102302
Henderson,NV,4/27/2019,rectangle,36.02665076,-115.0438399
Austin,TX,4/27/2019,triangle,30.30846944,-97.76011171
Bryan,TX,4/27/2019,unknown,30.68874087,-96.35819183
Anderson,SC,4/27/2019,circle,34.49168812,-82.64779851
Hebron,MD,4/27/2019,oval,38.4136,-75.7184
Salt Lake City,UT,4/27/2019,other,40.70446486,-111.8821388
Rehoboth,MA,4/28/2019,circle,41.8428,-71.2455
Longmont,CO,4/28/2019,other,40.17037332,-105.0854497
Farmington Hills,MI,4/28/2019,sphere,42.4853,-83.3772
Bridgton,ME,4/28/2019,circle,44.0336,-70.757
Bridgton,ME,4/28/2019,light,44.0336,-70.757
Kahului,HI,4/28/2019,circle,20.88045135,-156.4690459
Caldwell,ID,4/29/2019,unknown,43.67172909,-116.6920782
Philadelphia,PA,4/29/2019,cylinder,39.99063505,-75.14580121
Minneapolis,MN,4/29/2019,other,44.98078334,-93.29330788
Bowling Green,KY,4/29/2019,light,37.03270773,-86.41964444
Middletown,CT,4/29/2019,cigar,41.55001498,-72.65388937
Miami,FL,4/29/2019,light,25.77414271,-80.2895185
Allen,TX,4/29/2019,other,33.09563333,-96.64254298
Troutdale,OR,4/29/2019,formation,45.5288,-122.359
Reno,NV,4/29/2019,formation,39.50650741,-119.8174511
Clovis,CA,4/29/2019,unknown,36.86390064,-119.6521357
New Lexington,OH,4/29/2019,light,39.7102,-82.1939
Port Neches,TX,4/30/2019,light,29.9801,-93.9587
Ephrata,WA,4/30/2019,unknown,47.2724,-119.59
Ajo,AZ,4/30/2019,light,32.1595,-112.6223
Vallejo,CA,5/1/2019,light,38.11715995,-122.227822
Newman,CA,5/1/2019,unknown,37.2843,-121.2016
Pittston,PA,5/1/2019,cylinder,41.33488872,-75.79139549
Honolulu,HI,5/2/2019,rectangle,21.32260015,-157.8401287
New Bern,NC,5/2/2019,unknown,35.14886369,-77.08236306
Wichita Falls,TX,5/2/2019,circle,33.86756239,-98.51441538
Ventura,CA,5/2/2019,chevron,34.29657456,-119.2399163
Port Charlotte,FL,5/2/2019,flash,26.98100661,-82.11690661
Fertile,MN,5/2/2019,triangle,47.5791,-96.2596
Glendora,CA,5/3/2019,formation,34.13433038,-117.8511076
Gibbstown,NJ,5/3/2019,light,39.8192,-75.2872
Cheraw,SC,5/3/2019,light,34.6701,-79.9142
Grand Isle,VT,5/3/2019,light,44.7197,-73.3027
Tarpon Springs,FL,5/4/2019,fireball,28.14391102,-82.74108559
Pompano Beach,FL,5/4/2019,circle,26.25957024,-80.18338936
Jasper,GA,5/4/2019,other,34.461,-84.4278
Santa Barbara,CA,5/4/2019,sphere,34.3170381,-119.7205414
Wisconsin Rapids,WI,5/4/2019,circle,44.34193103,-89.76585172
Oakville,ON,5/5/2019,teardrop,43.46031846,-79.71625895
Poway,CA,1/7/2019,changing,32.97723982,-117.0234248
Millsboro,DE,2/6/2019,rectangle,38.5608,-75.3351
Indianapolis,IN,2/20/2019,changing,39.80764885,-86.14221403
Greensboro,GA,3/6/2019,cigar,33.5717,-83.1765
Villas,NJ,3/17/2019,other,39.0293,-74.926
Kenner,LA,3/18/2019,unknown,30.01750268,-90.25106429
Windsor,CA,3/21/2019,changing,38.5369,-122.8123
Norfolk,VA,3/23/2019,unknown,36.88938336,-76.26208236
Lowell,NC,5/5/2019,light,35.271,-81.0993
Lynwood,CA,5/5/2019,circle,33.9251,-118.2032
Peoria,AZ,5/5/2019,cigar,33.65789817,-112.246642
Fishers,IN,5/5/2019,formation,39.9583,-85.9988
Lake Elsinore,CA,5/5/2019,changing,33.69281152,-117.3629562
Mechanicsburg,PA,5/5/2019,other,40.21769191,-77.01150735
Idaho Falls,ID,5/6/2019,light,43.47350769,-112.0036244
Franklin,TN,5/6/2019,circle,35.91850835,-86.88540525
Auburn,IL,5/6/2019,light,39.589,-89.754
Jackson,MI,3/25/2019,light,42.23958516,-84.34975419
Grimes,IA,3/28/2019,chevron,41.6897,-93.7951
Newark,OH,3/28/2019,flash,40.1241,-82.3828
Stoughton,WI,3/28/2019,circle,42.9252,-89.1562
Charlotte,NC,3/29/2019,fireball,35.20580084,-80.82639156
Granite Falls,NC,3/29/2019,fireball,35.8362,-81.3861
Cleveland,TN,3/29/2019,fireball,35.16131194,-84.87355771
Lake Mary,FL,3/29/2019,changing,28.7578,-81.3397
Staunton,VA,5/6/2019,chevron,38.13703786,-79.06304078
Regina,SK,5/6/2019,light,50.44846995,-104.6178337
Seattle,WA,5/7/2019,light,47.60904639,-122.3260283
Hobart,IN,5/7/2019,other,41.5179,-87.2353
Palm Coast,FL,5/7/2019,sphere,29.540925,-81.20838512
Highlands,NC,5/8/2019,light,35.0751,-83.2101
Saint George,UT,5/8/2019,other,37.13106124,-113.5887632
Fremont,NH,5/8/2019,other,42.9884,-71.1299
Norfolk,VA,5/8/2019,light,36.88938336,-76.26208236
Statesboro,GA,5/8/2019,triangle,32.3986963,-81.81958815
Murfreesboro,TN,3/29/2019,light,35.86454843,-86.4034119
Moncton,NB,3/29/2019,cone,46.10951755,-64.79290186
Parkersburg,WV,3/29/2019,light,39.25467124,-81.55579281
Olympia,WA,3/29/2019,triangle,47.03031595,-122.896931
Depoe Bay,OR,3/29/2019,light,44.8129,-124.0568
Port Huron,MI,3/29/2019,circle,42.99099077,-82.47415154
Alpine,UT,3/29/2019,light,40.5037,-111.7075
Onalaska,WI,3/29/2019,triangle,43.9102,-91.2432
El Monte,CA,3/30/2019,triangle,34.07508015,-118.0195038
Cincinnati,OH,5/9/2019,triangle,39.17450312,-84.48136299
Windsor,ON,3/30/2019,changing,42.28187174,-82.99623884
Dallas,TX,3/30/2019,oval,32.83516808,-96.80811786
Vancouver,WA,3/30/2019,light,45.65808015,-122.5849084
Gulf Shores,AL,3/30/2019,sphere,30.250995,-87.68415
Jacksonville,FL,3/30/2019,other,30.26690468,-81.61637283
City of Industry,CA,3/30/2019,triangle,34.013,-117.9672
Jacksonville,FL,3/30/2019,fireball,30.26690468,-81.61637283
Decatur,GA,3/30/2019,teardrop,33.74485063,-84.26857785
Seattle,WA,3/31/2019,light,47.60904639,-122.3260283
Gilroy,CA,3/31/2019,sphere,37.0692,-121.5567
Charlotte,NC,3/31/2019,unknown,35.20580084,-80.82639156
Beachwood,NJ,4/1/2019,sphere,39.9279,-74.2017
Fairfield,CA,4/1/2019,unknown,38.26628125,-122.0464997
St Louis,MO,4/1/2019,light,38.62382493,-90.3085277
San Antonio,TX,4/1/2019,changing,29.48886592,-98.47524044
Chicopee,MA,4/1/2019,other,42.1792963,-72.56494815
Shenandoah,PA,4/1/2019,sphere,40.8218,-76.2035
Worth,IL,4/1/2019,light,41.6889,-87.7944
St Louis,MO,4/1/2019,sphere,38.62382493,-90.3085277
Rogers,AR,4/1/2019,unknown,36.29465033,-94.03436623
Deseronto,ON,4/1/2019,light,44.2,-77.0333
Pearsall,TX,4/1/2019,formation,28.8683,-99.1074
Lake Zurich,IL,4/1/2019,chevron,42.2008,-88.043
Port Charlotte,FL,4/2/2019,formation,26.98100661,-82.11690661
Arnold,MO,4/2/2019,disk,38.4231,-90.4006
Great Falls,MT,4/2/2019,light,47.46981803,-111.3317279
Madisonville,KY,4/2/2019,circle,37.3268,-87.4696
Grand Junction,CO,4/3/2019,oval,39.07603153,-108.5461577
Ossian,IN,4/3/2019,oval,40.8635,-85.1598
Barrie,ON,4/3/2019,circle,44.37673474,-79.68752632
Red Deer,AB,4/3/2019,triangle,52.25347643,-113.8090831
Englewood,OH,4/3/2019,light,39.8848,-84.3321
Kaysville,UT,4/3/2019,rectangle,41.0285,-111.9205
Winchester,TN,4/4/2019,fireball,35.1911,-86.1615
Efland,NC,4/4/2019,triangle,36.0664,-79.1969
Virginia Beach,VA,4/4/2019,circle,36.83730134,-76.06194815
Morganton,NC,4/4/2019,cylinder,35.75970943,-81.72392453
Ponte Vedra Beach,FL,4/4/2019,triangle,30.10861724,-81.35468966
Hendersonville,NC,4/4/2019,fireball,35.35226429,-82.43025357
Augusta,GA,4/4/2019,triangle,33.45848327,-82.0411777
Norfolk,VA,4/4/2019,light,36.88938336,-76.26208236
Savannah,GA,4/4/2019,oval,32.02970094,-81.13525336
Columbia,SC,4/4/2019,circle,34.02910564,-80.99284039
Sevierville,TN,4/4/2019,fireball,35.7915575,-83.54468333
Vero Beach,FL,4/4/2019,formation,27.65600488,-80.43302385
Fletcher,NC,4/4/2019,light,35.4608,-82.4715
Austin,TX,4/4/2019,cigar,30.30846944,-97.76011171
Southbridge,MA,4/4/2019,unknown,42.0707,-72.044
Sandy Hook,CT,4/4/2019,light,41.4047,-73.2504
Levittown,NY,4/5/2019,changing,40.7228,-73.517
Oregon,IL,4/5/2019,flash,41.9895,-89.2981
Fond Du Lac,WI,4/5/2019,oval,43.75806463,-88.41398659
Butler,MO,4/5/2019,diamond,38.2509,-94.3105
La Farge,WI,4/5/2019,formation,43.6114,-90.6436
Ashland City,TN,4/5/2019,chevron,36.2833,-87.0121
East Islip,NY,4/6/2019,circle,40.7214,-73.1701
Waterville,ME,4/6/2019,light,44.56136585,-69.55774878
Essie,KY,4/6/2019,sphere,37.0567,-83.4742
Sewell,NJ,4/6/2019,oval,39.7615,-75.1245
Los Angeles,CA,4/6/2019,light,34.05070709,-118.2799351
Huson,MT,4/6/2019,triangle,47.1327,-114.5344
Mary Esther,FL,4/7/2019,light,30.4087,-86.7569
Harrisburg,MO,4/7/2019,light,39.1394,-92.4461
Las Vegas,NV,4/7/2019,light,36.14124586,-115.1865919
Nashville,TN,4/7/2019,disk,36.13170004,-86.77681349
Palmdale,CA,4/8/2019,circle,34.53895496,-118.1137578
Nicholasville,KY,3/7/2019,fireball,37.86494844,-84.5643375
Snohomish,WA,3/12/2019,circle,47.91181404,-122.0352068
Jacksonville,AL,3/22/2019,triangle,33.8558,-85.7758
Toronto,ON,3/25/2019,circle,43.67588634,-79.41418835
Portsmouth,NH,4/4/2019,light,43.06793627,-70.79859864
Saint George,UT,4/6/2019,formation,37.13106124,-113.5887632
Milton,FL,4/10/2019,fireball,30.69733672,-87.05111638
Croydon,PA,4/10/2019,triangle,40.0894,-74.8918
Croydon,PA,4/10/2019,oval,40.0894,-74.8918
Freeport,TX,4/10/2019,formation,28.94901765,-95.4573
Toronto,ON,4/11/2019,sphere,43.67588634,-79.41418835
Toronto,ON,4/11/2019,other,43.67588634,-79.41418835
Ormond Beach,FL,4/11/2019,formation,29.30349483,-81.18193621
Culver City,CA,4/12/2019,chevron,34.00614941,-118.3923159
Sparks,NV,4/12/2019,triangle,39.57104725,-119.6757399
Fouke,AR,4/12/2019,light,33.2612,-93.8554
Sherwood,OR,4/12/2019,fireball,45.3552,-122.8615
Easley,SC,4/12/2019,sphere,34.8141922,-82.57285603
Tampa,FL,4/12/2019,light,28.00681436,-82.47646101
Carson City,NV,4/12/2019,unknown,39.16921421,-119.7517695
Cartersville,GA,4/13/2019,triangle,34.1800125,-84.79490937
Birdsboro,PA,4/13/2019,disk,40.2484,-75.8446
Clay,WV,4/13/2019,disk,38.4284,-81.0252
Crofton,KY,4/13/2019,light,37.0415,-87.4761
Gilbert,AZ,4/14/2019,triangle,33.3396009,-111.781265
Los Angeles,CA,4/14/2019,circle,34.05070709,-118.2799351
Pittsburgh,PA,4/14/2019,oval,40.44309195,-79.97424169
Encino,CA,4/14/2019,light,34.15541793,-118.5096166
Southborough,MA,4/14/2019,triangle,42.2966,-71.5352
El Cajon,CA,4/14/2019,light,32.80505053,-116.9175684
Faribault,MN,4/14/2019,triangle,44.3278,-93.2776
Burnsville,MN,4/14/2019,fireball,44.76898676,-93.277079
Twin Falls,ID,4/15/2019,light,42.43310923,-114.5794446
Frisco,TX,4/15/2019,triangle,33.14455577,-96.81782363
San Diego,CA,4/15/2019,other,32.78722908,-117.1402677
Montrose,MN,4/15/2019,oval,45.0482,-93.9133
Marysville,WA,4/15/2019,disk,48.06684122,-122.2019905
Aurora,CO,4/15/2019,chevron,39.68000199,-104.7929671
Meriden,CT,4/15/2019,circle,41.53889935,-72.79349085
Leeds,UT,4/15/2019,light,37.2386,-113.3591
New Prague,MN,4/16/2019,fireball,44.5411,-93.5902
Derry,NH,4/16/2019,circle,42.8915,-71.2787
Fort Myers,FL,4/16/2019,sphere,26.58139709,-81.84065303
Louisville,KY,4/16/2019,sphere,38.21121447,-85.68918456
Apache Junction,AZ,4/16/2019,circle,33.4151,-111.5496
Sarasota,FL,4/16/2019,cylinder,27.31073444,-82.49044026
Oley,PA,4/16/2019,formation,40.3779,-75.7746
Titusville,FL,4/16/2019,triangle,28.54022121,-80.85438636
Knoxville,IL,4/16/2019,light,40.9396,-90.2435
Macomb,IL,4/16/2019,circle,40.412,-90.6238
Lewistown,IL,4/16/2019,unknown,40.3804,-90.1329
Macomb,IL,4/16/2019,light,40.412,-90.6238
Vineland,NJ,4/16/2019,light,39.48592271,-75.00142657
Richmond,KY,4/16/2019,light,37.76628833,-84.30296
Portland,OR,4/17/2019,disk,45.51052971,-122.6652038
Republic,MO,4/17/2019,light,37.1291,-93.5151
Sun Valley,NV,4/17/2019,sphere,39.5983,-119.7758
Ballston Lake,NY,4/17/2019,cylinder,42.9233,-73.8407
Kissimmee,FL,4/17/2019,light,28.25503467,-81.42949196
Bartow,FL,4/17/2019,changing,27.88918125,-81.81470625
Muncie,IN,4/17/2019,unknown,40.21599478,-85.41153896
Milaca,MN,4/18/2019,unknown,45.7856,-93.6209
Port Townsend,WA,1/13/2019,unknown,48.117,-122.7605
Maynardville,TN,3/9/2019,oval,36.259,-83.8065
Montgomery,TX,3/24/2019,sphere,30.41326429,-95.70465714
Knoxville,TN,3/29/2019,fireball,35.96156134,-83.98011529
Cross hill,SC,4/1/2019,cone,34.3026,-81.9841
Port Townsend,WA,4/2/2019,unknown,48.117,-122.7605
Salinas,CA,4/5/2019,light,36.68852458,-121.6284548
Brookings,SD,4/8/2019,triangle,44.32742535,-96.81042817
Baker,CA,4/8/2019,light,35.3187,-116.0452
Santa Fe,NM,4/9/2019,oval,35.66108268,-105.9539071
D'Iberville,MS,4/9/2019,unknown,30.4438,-88.9008
Converse,TX,4/9/2019,light,29.4886,-98.2735
Mary Esther,FL,4/9/2019,triangle,30.4087,-86.7569
Clarksville,TN,4/9/2019,disk,36.51515837,-87.36103416
Linwood,NJ,4/9/2019,chevron,39.3445,-74.5698
Plainville,CT,4/9/2019,circle,41.6738,-72.8544
San Antonio,TX,4/9/2019,circle,29.48886592,-98.47524044
Trenton,OH,4/10/2019,unknown,39.4842,-84.489
Desert Hot Springs,CA,4/10/2019,light,33.91594,-116.4618338
Salinas,CA,4/10/2019,triangle,36.68852458,-121.6284548
Jacksonville,FL,4/10/2019,light,30.26690468,-81.61637283
Orlando,FL,4/10/2019,changing,28.5192467,-81.35409598
Apache Junction,AZ,4/10/2019,circle,33.4151,-111.5496
Mesa,AZ,4/10/2019,light,33.42126454,-111.7727973
Orlando,FL,4/10/2019,sphere,28.5192467,-81.35409598
Austin,TX,4/10/2019,triangle,30.30846944,-97.76011171
Beaver,OH,4/10/2019,circle,39.0456,-82.8193
Statesboro,GA,4/10/2019,triangle,32.3986963,-81.81958815
Fresno,CA,4/11/2019,triangle,36.78825093,-119.7894705
Harrisburg,PA,4/11/2019,triangle,40.30708258,-76.83058885
Cleveland,TN,4/11/2019,circle,35.16131194,-84.87355771
Hillsboro,OH,4/11/2019,triangle,39.1669,-83.5655
San Antonio,TX,4/11/2019,triangle,29.48886592,-98.47524044
Torrington,CT,2/4/2019,other,41.8394,-73.1255
Durango,CO,2/4/2019,other,37.42148,-107.8529183
Warner Robins,GA,2/8/2019,triangle,32.59603048,-83.63209333
Sparks,NV,2/10/2019,disk,39.57104725,-119.6757399
Hadley,MA,2/26/2019,rectangle,42.3567,-72.5864
Independence,MO,3/13/2019,changing,39.07880845,-94.38608575
Bunker Hill,IL,3/15/2019,light,39.0497,-89.9513
Blackwell,TX,3/18/2019,light,32.0868,-100.3176
Kansas City,MO,3/18/2019,formation,39.10083514,-94.56447929
Isanti,MN,3/19/2019,other,45.4753,-93.2873
Lodi,CA,3/20/2019,other,38.12603333,-121.2616585
Redmond,OR,3/20/2019,fireball,44.2628,-121.2268
North Dartmouth,MA,3/21/2019,circle,41.6623,-71.0107
Nampa,ID,3/21/2019,circle,43.56891901,-116.5619761
Memphis,TN,3/21/2019,sphere,35.12547266,-89.92692482
Elizabeth,IN,3/22/2019,oval,38.1047,-85.9864
Sheboygan,WI,3/22/2019,circle,43.7404657,-87.75469651
Taos,NM,3/22/2019,cigar,36.4146,-105.5222
Jacksonville,FL,3/22/2019,unknown,30.26690468,-81.61637283
Palm Coast,FL,3/22/2019,light,29.540925,-81.20838512
Morris,MN,3/22/2019,triangle,45.586,-95.9544
Toronto,ON,3/23/2019,disk,43.67588634,-79.41418835
Reading,MA,3/23/2019,light,42.5335,-71.1036
Tucson,AZ,3/23/2019,rectangle,32.25994076,-110.9275423
Tucson,AZ,3/23/2019,circle,32.25994076,-110.9275423
Columbus,OH,3/23/2019,changing,40.00341687,-82.99822087
Baltimore,MD,3/23/2019,light,39.31307269,-76.61182202
Windsor,CT,3/23/2019,disk,41.86867857,-72.66726558
Kansas City,MO,3/23/2019,triangle,39.10083514,-94.56447929
Ocean Shores,WA,3/23/2019,light,46.972,-124.1432
Piketon,OH,3/23/2019,light,39.0485,-83.1662
Eloy,AZ,3/23/2019,light,32.7559,-111.5548
Babylon,NY,3/23/2019,cylinder,40.6278,-73.365
Ocean Shores,WA,3/24/2019,light,46.972,-124.1432
Portland,OR,3/24/2019,unknown,45.51052971,-122.6652038
Yucca Valley,CA,3/24/2019,cylinder,34.15266053,-116.41925
Tempe,AZ,3/24/2019,light,33.41403567,-111.9209196
Benson,AZ,3/24/2019,oval,32.1924,-110.3862
Lihue,HI,3/24/2019,disk,21.977,-159.3911
North Las Vegas,NV,3/25/2019,unknown,36.2436593,-115.1449631
Fayetteville,GA,3/25/2019,other,33.423185,-84.472045
Portland,OR,3/25/2019,circle,45.51052971,-122.6652038
Colorado Springs,CO,3/25/2019,unknown,38.8614783,-104.7803978
Hurst,TX,3/25/2019,light,32.82984404,-97.17409633
Crofton,MD,3/25/2019,light,39.0142,-76.6794
Mancelona,MI,3/25/2019,disk,44.9062,-85.0293
Trenton,NC,3/26/2019,diamond,35.0449,-77.4214
Hanna City,IL,3/26/2019,light,40.681,-89.7847
Hamden,CT,3/27/2019,triangle,41.37946858,-72.9197433
Miami,FL,3/27/2019,fireball,25.77414271,-80.2895185
Washington Court House,OH,3/27/2019,unknown,39.5372,-83.4343
Helena,MT,3/28/2019,light,46.59667368,-112.0813135
Kuna,ID,3/28/2019,fireball,43.4375,-116.3232
Exton,PA,3/28/2019,sphere,40.0409,-75.6374
Pembroke,MA,3/28/2019,circle,42.0647,-70.7986
Springfield,MA,3/28/2019,fireball,42.1097877,-72.5538377
San Diego,CA,3/28/2019,flash,32.78722908,-117.1402677
Lakeville,MN,3/29/2019,triangle,44.6307,-93.3034
Parker,AZ,3/29/2019,disk,33.9902,-114.2391
Atlanta,GA,3/29/2019,light,33.80870552,-84.38988232
Greenwood,SC,3/29/2019,egg,34.19165571,-82.14827143
Fort Atkinson,WI,2/22/2019,light,42.8987,-88.7991
El Paso,TX,4/20/2019,triangle,31.79232818,-106.3748489
Frackville,PA,5/18/2019,circle,40.7852,-76.223
Hanover,PA,6/20/2019,circle,39.79686142,-76.99284252
Cedar City,UT,8/10/2019,light,37.74135714,-113.1391381
Winnipeg,MB,8/20/2019,disk,49.89126004,-97.15285022
La Quinta,CA,11/19/2019,light,33.65794508,-116.2703279
Noble,OK,11/22/2019,light,35.1397,-97.2786
Burlington,IA,11/24/2019,light,40.8424,-91.1073
Kenna,WV,11/29/2019,light,38.643,-81.6213
Waldorf,MD,12/12/2019,oval,38.61199693,-76.90655119
Denver,CO,12/15/2019,light,39.74512637,-104.9593459
Tampa,FL,12/16/2019,circle,28.00681436,-82.47646101
Bakersfield,CA,12/17/2019,sphere,35.34399793,-119.0408926
Laveen,AZ,12/18/2019,disk,33.3054,-112.1997
Dalton,GA,12/18/2019,triangle,34.7806506,-84.93673735
Winston-Salem,NC,12/19/2019,circle,36.09356862,-80.27833537
Hammond,LA,12/19/2019,disk,30.48724524,-90.47692917
Coventry,RI,12/19/2019,oval,41.6933,-71.6395
Cranston,RI,12/19/2019,fireball,41.77119239,-71.46207462
North Las Vegas,NV,12/19/2019,sphere,36.2436593,-115.1449631
Kingwood,TX,12/19/2019,disk,30.0336,-95.261
Point Harbor,NC,12/19/2019,cigar,36.0871,-75.8041
Hartselle,AL,12/19/2019,light,34.4436,-86.9369
Girard,PA,12/19/2019,triangle,41.9703,-80.3125
Bellevue,NE,12/19/2019,oval,41.13068108,-95.92197162
White Lake,MI,12/19/2019,light,42.656908,-83.4928192
Mesa,AZ,12/19/2019,unknown,33.42126454,-111.7727973
Plymouth Meeting,PA,12/19/2019,triangle,40.1158,-75.2842
Belleville,KS,12/19/2019,sphere,39.8351,-97.6222
Lynbrook,NY,12/19/2019,circle,40.6578,-73.672
Jerome,ID,12/19/2019,light,42.7595,-114.365
Fort Collins,CO,12/19/2019,unknown,40.55069823,-105.077295
Del Mar,CA,12/20/2019,unknown,32.9672,-117.2586
Savannah,GA,12/20/2019,cigar,32.02970094,-81.13525336
Dunnellon,FL,12/20/2019,fireball,29.08681538,-82.42514359
Bethlehem,GA,12/20/2019,fireball,33.9297,-83.7447
Greensboro,NC,12/20/2019,oval,36.07696303,-79.81581388
New Port Richey,FL,12/20/2019,light,28.24270049,-82.67723901
Valdosta,GA,12/20/2019,light,30.85822315,-83.30521065
Greenville,SC,12/20/2019,other,34.83721313,-82.33834929
Ponte Vedra Beach,FL,12/20/2019,light,30.10861724,-81.35468966
Ellettsville,IN,12/20/2019,sphere,39.2722,-86.6197
Thomson,GA,12/20/2019,triangle,33.4966,-82.5286
Phoenix,AZ,12/20/2019,light,33.53538055,-112.04946
Milo,IA,12/20/2019,formation,41.2767,-93.4356
Port Orange,FL,12/20/2019,light,29.11762222,-81.00494074
Three rivers,MI,12/20/2019,circle,41.9761,-85.6475
Hewlett,NY,12/20/2019,circle,40.6364,-73.6939
Dayton,TX,12/20/2019,circle,30.0454,-94.9058
Burlington,VT,12/21/2019,light,44.47554792,-73.21075
Blue Springs,MO,12/21/2019,triangle,39.01482294,-94.28685826
Wichita,KS,12/21/2019,unknown,37.69639785,-97.3295401
Helena,MT,12/21/2019,other,46.59667368,-112.0813135
Nicholasville,KY,12/21/2019,triangle,37.86494844,-84.5643375
Greenville,SC,12/21/2019,circle,34.83721313,-82.33834929
Gloucester City,NJ,12/21/2019,formation,39.8918,-75.1163
Albuquerque,NM,12/21/2019,light,35.10348122,-106.6124752
Indianapolis,IN,12/21/2019,circle,39.80764885,-86.14221403
Greenville,SC,12/21/2019,sphere,34.83721313,-82.33834929
Saskatoon,SK,12/21/2019,formation,52.10783737,-106.6692324
Carthage,NC,12/21/2019,fireball,35.3593,-79.4354
Rohnert Park,CA,12/22/2019,light,38.34323901,-122.7040505
Chicago,IL,12/22/2019,circle,41.87991242,-87.66801796
Deming,NM,12/22/2019,other,32.22860909,-107.7630545
Hays,KS,12/22/2019,light,38.9001,-99.347
Reno,NV,12/22/2019,formation,39.50650741,-119.8174511
Santa Cruz,CA,12/22/2019,sphere,37.01125665,-122.0445086
Hayward,CA,12/22/2019,light,37.65029014,-122.0760055
Salinas,CA,12/22/2019,light,36.68852458,-121.6284548
Castro Valley,CA,12/22/2019,formation,37.70575633,-122.0697127
Grain valley,MO,12/22/2019,light,38.9927,-94.2151
Troy Grove,IL,12/22/2019,light,41.4678,-89.0831
Fairfield,IA,12/22/2019,light,41.02479,-91.9316375
Rockford,IL,12/22/2019,light,42.27738134,-89.04477791
Branson,MO,12/22/2019,light,36.66493333,-93.25375225
Huntsville,MO,12/22/2019,light,39.4767,-92.5697
Lisle,IL,12/22/2019,sphere,41.787,-88.0833
Herscher,IL,12/22/2019,light,41.0428,-88.0676
Elkhorn,WI,12/22/2019,light,42.713,-88.5429
Huntley,IL,12/22/2019,light,42.1759,-88.4608
Kansasville,WI,12/22/2019,light,42.6903,-88.1256
Aurora,IL,12/22/2019,light,41.76135531,-88.31528938
Morrison,IL,12/22/2019,light,41.8228,-89.961
Sedalia,MO,12/22/2019,circle,38.70291441,-93.23672342
Mayflower,AR,12/22/2019,sphere,34.9741,-92.4312
Gladwin,MI,12/22/2019,unknown,44.0747,-84.4347
Lafayette,IN,12/22/2019,formation,40.39735667,-86.86183147
Defiance,OH,12/22/2019,light,41.3606,-84.3701
Elkhart,IN,12/22/2019,light,41.68416941,-85.96900085
Howell,MI,12/22/2019,formation,42.60518613,-83.90061092
Aylmer,ON,12/22/2019,circle,42.7668,-80.983
Clinton,MI,12/22/2019,formation,42.0807,-83.9587
Schoolcraft,MI,12/22/2019,cylinder,42.1331,-85.6851
Sturgis,MI,12/22/2019,light,41.8429,-85.4475
Vicksburg,MI,12/22/2019,formation,42.1095,-85.4734
Middlebury,IN,12/22/2019,other,41.6753,-85.7061
Rochester,IN,12/22/2019,formation,41.0409,-86.2717
Monticello,IN,12/22/2019,changing,40.7735,-86.7154
Eagle,MI,12/22/2019,rectangle,42.8426,-84.7593
Strathroy,ON,12/22/2019,light,42.9551,-81.6223
Fishkill,NY,12/22/2019,disk,41.5277,-73.9072
Bethlehem,PA,12/22/2019,unknown,40.63503864,-75.37143232
Kennett Square,PA,12/22/2019,triangle,39.8468,-75.7116
Clarkston,MI,12/22/2019,circle,42.73986514,-83.41715029
San Jose,CA,1/3/2019,oval,37.33884202,-121.8897057
Spencerville,OH,1/11/2019,other,40.7171,-84.3657
Burnsville,MN,1/16/2019,circle,44.76898676,-93.277079
Morgantown,WV,1/12/2019,oval,39.61804627,-79.9591764
Aptos,CA,2/6/2019,light,37.0059037,-121.8793074
Mays Landing,NJ,2/2/2019,triangle,39.4543,-74.7321
Vancouver,BC,2/24/2019,circle,49.26892573,-123.1122398
Fairview Heights,IL,3/5/2019,changing,38.5974,-90.0071
Clayton,NC,9/2/2019,cylinder,35.63590426,-78.44469681
Baton Rouge,LA,9/16/2019,oval,30.42736711,-91.08695573
Utica,NY,9/13/2019,circle,43.11854496,-75.17409884
Cortaro,AZ,4/14/2019,other,32.3562,-111.0884
San Antonio,TX,5/15/2019,triangle,29.48886592,-98.47524044
Longmont,CO,5/15/2019,other,40.17037332,-105.0854497
Bakersfield,CA,5/22/2019,other,35.34399793,-119.0408926
Flint,MI,5/27/2019,light,43.01416474,-83.70674685
Edmonton,AB,7/10/2019,changing,53.52298881,-113.5039614
New Harbor,ME,6/25/2019,sphere,43.8576,-69.5051
Newcastle,OK,7/10/2019,unknown,35.2323,-97.6008
Plano,TX,7/12/2019,circle,33.0481215,-96.74114607
Roseville,MN,8/1/2019,light,45.0061,-93.1566
Flanders,NJ,8/24/2019,disk,40.8478,-74.7097
Spokane,WA,7/13/2019,light,47.68357629,-117.3863311
Lynchburg,OH,7/24/2019,light,39.1972,-83.7381
Williamsburg,VA,7/29/2019,circle,37.3058109,-76.73795308
Boulder City,NV,8/1/2019,other,35.926688,-114.806292
Syracuse,NY,8/5/2019,fireball,43.05037092,-76.1570637
Port Orchard,WA,9/1/2019,disk,47.51249275,-122.6157181
Taos,NM,9/1/2019,other,36.4146,-105.5222
Mastic beach,NY,9/2/2019,triangle,40.7662,-72.8377
Rochester,WA,9/7/2019,circle,46.8045,-123.1412
Santa Barbara,CA,9/8/2019,other,34.3170381,-119.7205414
Jackson,OH,9/8/2019,fireball,39.0245,-82.6212
Isle of Palms,SC,8/5/2019,circle,32.8014,-79.7639
Wilkesboro,NC,8/7/2019,other,36.1425,-81.1635
Sod,WV,8/9/2019,circle,38.2703,-81.8984
Panama City,FL,8/11/2019,changing,30.20772995,-85.62376675
Patterson,CA,8/12/2019,oval,37.4957,-121.2546
Lakewood,OH,9/9/2019,cigar,41.4817,-81.8024
Lewisburg,TN,9/9/2019,triangle,35.4724,-86.7524
Mendota,CA,9/9/2019,triangle,36.6712,-120.4387
Los Angeles,CA,9/10/2019,triangle,34.05070709,-118.2799351
Edmonton,AB,9/11/2019,sphere,53.52298881,-113.5039614
Evansville,IN,8/12/2019,formation,37.98475253,-87.51397042
Ann Arbor,MI,8/19/2019,egg,42.28027534,-83.73625456
Ukiah,CA,8/19/2019,unknown,39.1266,-123.2805
Bartlesville,OK,8/20/2019,triangle,36.72778269,-95.93783942
North Las Vegas,NV,9/11/2019,flash,36.2436593,-115.1449631
Matador,TX,9/11/2019,triangle,34.0763,-100.8675
Milton-Freewater,OR,9/11/2019,triangle,45.9029,-118.3401
Valparaiso,IN,9/12/2019,circle,41.46761748,-87.03158252
New Providence,NJ,9/12/2019,disk,40.6973,-74.4052
Hayward,CA,8/22/2019,other,37.65029014,-122.0760055
Minnetonka,MN,8/22/2019,cylinder,44.9198,-93.4832
Onamia,MN,8/22/2019,unknown,46.0614,-93.6734
Chester,NY,8/23/2019,light,41.3467,-74.2619
Scottdale,PA,9/12/2019,changing,40.1082,-79.6117
Westwego,LA,9/12/2019,light,29.918,-90.2033
Parsons,WV,9/12/2019,other,39.196,-79.6203
Mesa,AZ,9/12/2019,sphere,33.42126454,-111.7727973
Wichita,KS,8/23/2019,triangle,37.69639785,-97.3295401
Portland,OR,8/23/2019,cone,45.51052971,-122.6652038
College Park,MD,8/23/2019,sphere,38.99577353,-76.93307647
Milwaukee,WI,8/23/2019,flash,43.05174403,-87.95998544
Ashford,CT,8/23/2019,light,41.8956,-72.1622
Reno,NV,8/23/2019,light,39.50650741,-119.8174511
Seeley Lake,MT,8/23/2019,flash,47.2499,-113.5353
Leavenworth,KS,8/23/2019,light,39.30139403,-94.97446119
Bedford,MA,9/12/2019,disk,42.4878,-71.2764
Myrtle Beach,SC,9/12/2019,light,33.68315,-78.9395391
Myrtle Beach,SC,9/12/2019,unknown,33.68315,-78.9395391
Berwick,ME,9/12/2019,light,43.3048,-70.8421
West Valley City,UT,9/12/2019,light,40.6916,-112.0011
Kansas City,MO,9/12/2019,circle,39.10083514,-94.56447929
North Springfield,VT,9/12/2019,formation,43.3356,-72.5242
Worley,ID,9/13/2019,light,47.4469,-116.8976
Leavenworth,KS,8/23/2019,disk,39.30139403,-94.97446119
Geneva,OH,8/23/2019,oval,41.7682,-80.9475
Camden,NJ,8/23/2019,cylinder,39.93795714,-75.10196299
Woodbridge,VA,8/23/2019,circle,38.64662271,-77.31406
Shelley,ID,8/24/2019,circle,43.3419,-112.0712
Jordan,MN,8/24/2019,unknown,44.6586,-93.5975
Los Angeles,CA,9/13/2019,triangle,34.05070709,-118.2799351
Rockport,MA,9/13/2019,sphere,42.6593,-70.5991
Sherwood Park,AB,9/13/2019,triangle,53.52539558,-113.2772595
Owensboro,KY,9/13/2019,formation,37.76107062,-87.15569742
Aurora,IL,9/13/2019,circle,41.76135531,-88.31528938
Xenia,OH,8/24/2019,cylinder,39.678,-83.9027
Grand Rapids,MI,8/24/2019,other,42.94334184,-85.64301557
Sacramento,CA,8/24/2019,sphere,38.57580181,-121.4500996
Kent,WA,8/24/2019,cigar,47.38164505,-122.1967851
Cocoa,FL,8/24/2019,fireball,28.41944124,-80.79460928
Sewickley,PA,9/13/2019,other,40.5775,-80.1503
Yucca Valley,CA,9/13/2019,rectangle,34.15266053,-116.41925
Downers Grove,IL,9/13/2019,circle,41.79319379,-88.02713693
Smithsburg,MD,9/13/2019,light,39.6488,-77.5619
Meridian,ID,9/13/2019,formation,43.60516382,-116.4086523
East Greenwich,RI,9/13/2019,unknown,41.6434,-71.4783
Puyallup,WA,8/24/2019,formation,47.14574064,-122.2924202
Cleveland,OH,8/24/2019,triangle,41.47117692,-81.6546033
Corrales,NM,8/24/2019,light,35.2393,-106.6255
Muscatine,IA,8/24/2019,changing,41.4046,-91.0321
Garden Grove,CA,8/25/2019,cylinder,33.77568084,-117.9588831
Troy,OH,9/14/2019,circle,40.03583043,-84.17787899
Lakeport,CA,9/14/2019,circle,39.0429,-122.9158
Portland,OR,9/14/2019,light,45.51052971,-122.6652038
Edmonton,AB,8/25/2019,formation,53.52298881,-113.5039614
Lothian,MD,8/25/2019,unknown,38.8011,-76.6469
Boise,ID,8/25/2019,flash,43.6144452,-116.244678
Key Biscayne,FL,8/25/2019,light,25.6968,-80.1611
Carpinteria,CA,9/14/2019,diamond,34.43283462,-119.5222269
Raynham,MA,9/14/2019,triangle,41.9391,-71.0586
Chandler,OK,9/14/2019,other,35.7028,-96.8627
Nashville,TN,9/14/2019,unknown,36.13170004,-86.77681349
Superior,MT,9/14/2019,light,47.0566,-114.9768
Lockhart,TX,8/25/2019,light,29.8973,-97.6783
Scipio,IN,9/14/2019,light,39.072,-85.7292
Troy,IL,9/14/2019,egg,38.7031,-89.8786
Hereford,TX,9/14/2019,formation,34.8423,-102.5446
Bothell,WA,9/15/2019,unknown,47.81147362,-122.1998719
Las vegas,NV,9/15/2019,circle,36.14124586,-115.1865919
New Braunfels,TX,9/15/2019,light,29.71726241,-98.09779007
White Lake,ON,8/25/2019,sphere,45.3551,-76.488
Bradenton,FL,8/25/2019,fireball,27.4609671,-82.5293294
Lake Ann,MI,8/25/2019,disk,44.7332,-85.8868
Madera,CA,8/26/2019,disk,36.94874011,-120.102985
Reading,PA,9/15/2019,oval,40.3399881,-75.94901358
Allentown,PA,9/15/2019,rectangle,40.60203012,-75.50084324
Lancaster,PA,9/15/2019,sphere,40.0332671,-76.3030232
Lakeville,MA,9/15/2019,circle,41.84355,-70.96487292
Westminster,MD,9/15/2019,triangle,39.59146094,-77.00426309
New Leipzig,ND,9/15/2019,fireball,46.353,-102.0299
Imperial,MO,9/15/2019,triangle,38.3965,-90.4263
Marysville,CA,9/16/2019,changing,39.1587,-121.4726
Colorado Springs,CO,8/26/2019,light,38.8614783,-104.7803978
Glenwood Springs,CO,8/26/2019,fireball,39.58358209,-107.3022925
Lake City,FL,9/16/2019,circle,30.14528462,-82.63721731
Fortuna,CA,9/16/2019,oval,40.5788,-124.15
Hampton,VA,9/16/2019,triangle,37.05464238,-76.3744436
Utica,NY,9/16/2019,other,43.11854496,-75.17409884
Lake Forest,CA,8/27/2019,sphere,33.64511939,-117.678652
Manteno,IL,8/27/2019,light,41.2541,-87.8912
Astoria,OR,8/27/2019,circle,46.1247,-123.6765
Roseburg,OR,8/27/2019,light,43.2175,-123.3848429
Port Angeles,WA,9/16/2019,light,48.00258533,-123.397896
Anderson,SC,9/16/2019,sphere,34.49168812,-82.64779851
Lone Pine,CA,7/1/2019,other,36.5647,-118.1873
Piqua,OH,7/15/2019,rectangle,40.1676,-84.2178
Dayton,OH,8/7/2019,fireball,39.73540852,-84.16762781
Salem,IL,8/7/2019,light,38.6368,-88.9198
Deming,NM,8/15/2019,light,32.22860909,-107.7630545
